name,city,country,IATA,,lat,long,x,y,z,region,type
Goroka Airport,Goroka,Papua New Guinea,GKA,AYGA,-6.08168983459,145.391998291,5282,10,U,Pacific/Port_Moresby,airport
Madang Airport,Madang,Papua New Guinea,MAG,AYMD,-5.20707988739,145.789001465,20,10,U,Pacific/Port_Moresby,airport
Mount Hagen Kagamuga Airport,Mount Hagen,Papua New Guinea,HGU,AYMH,-5.82678985595703,144.296005249023,5388,10,U,Pacific/Port_Moresby,airport
Nadzab Airport,Nadzab,Papua New Guinea,LAE,AYNZ,-6.569803,146.725977,239,10,U,Pacific/Port_Moresby,airport
Port Moresby Jacksons International Airport,Port Moresby,Papua New Guinea,POM,AYPY,-9.44338035583496,147.220001220703,146,10,U,Pacific/Port_Moresby,airport
Wewak International Airport,Wewak,Papua New Guinea,WWK,AYWK,-3.58383011818,143.669006348,19,10,U,Pacific/Port_Moresby,airport
Narsarsuaq Airport,Narssarssuaq,Greenland,UAK,BGBW,61.1604995728,-45.4259986877,112,-3,E,America/Godthab,airport
Godthaab / Nuuk Airport,Godthaab,Greenland,GOH,BGGH,64.19090271,-51.6781005859,283,-3,E,America/Godthab,airport
Kangerlussuaq Airport,Sondrestrom,Greenland,SFJ,BGSF,67.0122218992,-50.7116031647,165,-3,E,America/Godthab,airport
Thule Air Base,Thule,Greenland,THU,BGTL,76.5311965942,-68.7032012939,251,-4,E,America/Thule,airport
Akureyri Airport,Akureyri,Iceland,AEY,BIAR,65.6600036621094,-18.0727005004883,6,0,N,Atlantic/Reykjavik,airport
Egilsstaðir Airport,Egilsstadir,Iceland,EGS,BIEG,65.2833023071289,-14.4013996124268,76,0,N,Atlantic/Reykjavik,airport
Hornafjörður Airport,Hofn,Iceland,HFN,BIHN,64.295601,-15.2272,24,0,N,Atlantic/Reykjavik,airport
Húsavík Airport,Husavik,Iceland,HZK,BIHU,65.952301,-17.426001,48,0,N,Atlantic/Reykjavik,airport
Ísafjörður Airport,Isafjordur,Iceland,IFJ,BIIS,66.0580978393555,-23.1352996826172,8,0,N,Atlantic/Reykjavik,airport
Keflavik International Airport,Keflavik,Iceland,KEF,BIKF,63.985000610352,-22.605600357056,171,0,N,Atlantic/Reykjavik,airport
Patreksfjörður Airport,Patreksfjordur,Iceland,PFJ,BIPA,65.555801,-23.965,11,0,N,Atlantic/Reykjavik,airport
Reykjavik Airport,Reykjavik,Iceland,RKV,BIRK,64.1299972534,-21.9405994415,48,0,N,Atlantic/Reykjavik,airport
Siglufjörður Airport,Siglufjordur,Iceland,SIJ,BISI,66.133301,-18.9167,10,0,N,Atlantic/Reykjavik,airport
Vestmannaeyjar Airport,Vestmannaeyjar,Iceland,VEY,BIVM,63.4243011474609,-20.2789001464844,326,0,N,Atlantic/Reykjavik,airport
Sault Ste Marie Airport,Sault Sainte Marie,Canada,YAM,CYAM,46.4850006103516,-84.5093994140625,630,-5,A,America/Toronto,airport
Winnipeg / St. Andrews Airport,Winnipeg,Canada,YAV,CYAV,50.0564002991,-97.0325012207,760,-6,A,America/Winnipeg,airport
Halifax / CFB Shearwater Heliport,Halifax,Canada,YAW,CYAW,44.6397018433,-63.4994010925,144,-4,A,America/Halifax,airport
St. Anthony Airport,St. Anthony,Canada,YAY,CYAY,51.3918991089,-56.0830993652,108,-3.5,A,America/St_Johns,airport
Tofino / Long Beach Airport,Tofino,Canada,YAZ,CYAZ,49.079833,-125.775583,80,-8,A,America/Vancouver,airport
Kugaaruk Airport,Pelly Bay,Canada,YBB,CYBB,68.534401,-89.808098,56,-7,A,America/Edmonton,airport
Baie Comeau Airport,Baie Comeau,Canada,YBC,CYBC,49.1324996948242,-68.2043991088867,71,-5,A,America/Toronto,airport
CFB Bagotville,Bagotville,Canada,YBG,CYBG,48.3306007385254,-70.9963989257813,522,-5,A,America/Toronto,airport
Baker Lake Airport,Baker Lake,Canada,YBK,CYBK,64.2988967896,-96.077796936,59,-6,A,America/Winnipeg,airport
Campbell River Airport,Campbell River,Canada,YBL,CYBL,49.9508018493652,-125.271003723145,346,-8,A,America/Vancouver,airport
Brandon Municipal Airport,Brandon,Canada,YBR,CYBR,49.91,-99.951897,1343,-6,A,America/Winnipeg,airport
Cambridge Bay Airport,Cambridge Bay,Canada,YCB,CYCB,69.1081008911,-105.138000488,90,-7,A,America/Edmonton,airport
Nanaimo Airport,Nanaimo,Canada,YCD,CYCD,49.0549702249,-123.869862556,92,-8,A,America/Vancouver,airport
Castlegar/West Kootenay Regional Airport,Castlegar,Canada,YCG,CYCG,49.2963981628,-117.632003784,1624,-8,A,America/Vancouver,airport
Miramichi Airport,Chatham,Canada,YCH,CYCH,47.007801,-65.449203,108,-4,A,America/Halifax,airport
Charlo Airport,Charlo,Canada,YCL,CYCL,47.990799,-66.330299,132,-4,A,America/Halifax,airport
Kugluktuk Airport,Coppermine,Canada,YCO,CYCO,67.8167037964,-115.143997192,74,-7,A,America/Edmonton,airport
Coronation Airport,Coronation,Canada,YCT,CYCT,52.0750007629,-111.444999695,2595,-7,A,America/Edmonton,airport
Chilliwack Airport,Chilliwack,Canada,YCW,CYCW,49.1528015137,-121.939002991,32,-8,A,America/Vancouver,airport
Clyde River Airport,Clyde River,Canada,YCY,CYCY,70.4860992432,-68.5167007446,87,-5,A,America/Toronto,airport
Coral Harbour Airport,Coral Harbour,Canada,YZS,CYZS,64.1932983398,-83.3593978882,210,-5,A,America/Coral_Harbour,airport
Dawson City Airport,Dawson,Canada,YDA,CYDA,64.043098449707,-139.128005981445,1215,-8,A,America/Vancouver,airport
Burwash Airport,Burwash,Canada,YDB,CYDB,61.3711013793945,-139.041000366211,2647,-8,A,America/Vancouver,airport
Princeton Airport,Princeton,Canada,YDC,CYDC,49.4681015015,-120.511001587,2298,-8,A,America/Vancouver,airport
Deer Lake Airport,Deer Lake,Canada,YDF,CYDF,49.2108001708984,-57.3913993835449,72,-3.5,A,America/St_Johns,airport
Dease Lake Airport,Dease Lake,Canada,YDL,CYDL,58.4221992493,-130.031997681,2600,-8,A,America/Vancouver,airport
Dauphin Barker Airport,Dauphin,Canada,YDN,CYDN,51.1007995605469,-100.052001953125,999,-6,A,America/Winnipeg,airport
Dawson Creek Airport,Dawson Creek,Canada,YDQ,CYDQ,55.7422981262207,-120.182998657227,2148,-7,A,America/Dawson_Creek,airport
Edmonton International Airport,Edmonton,Canada,YEG,CYEG,53.3097000122,-113.580001831,2373,-7,A,America/Edmonton,airport
Arviat Airport,Eskimo Point,Canada,YEK,CYEK,61.0942001343,-94.0708007812,32,-6,A,America/Winnipeg,airport
Estevan Airport,Estevan,Canada,YEN,CYEN,49.2103004456,-102.966003418,1905,-6,N,America/Regina,airport
Edson Airport,Edson,Canada,YET,CYET,53.5788993835,-116.464996338,3043,-7,A,America/Edmonton,airport
Eureka Airport,Eureka,Canada,YEU,CYEU,79.9946975708,-85.814201355,256,-6,A,America/Winnipeg,airport
Inuvik Mike Zubko Airport,Inuvik,Canada,YEV,CYEV,68.3041992188,-133.483001709,224,-7,A,America/Edmonton,airport
Iqaluit Airport,Iqaluit,Canada,YFB,CYFB,63.756401062,-68.5558013916,110,-5,A,America/Toronto,airport
Fredericton Airport,Fredericton,Canada,YFC,CYFC,45.8689002990723,-66.5372009277344,68,-4,A,America/Halifax,airport
Forestville Airport,Forestville,Canada,\N,CYFE,48.7461013793945,-69.0971984863281,293,-5,A,America/Toronto,airport
Flin Flon Airport,Flin Flon,Canada,YFO,CYFO,54.6781005859375,-101.681999206543,997,-6,A,America/Winnipeg,airport
Fort Resolution Airport,Fort Resolution,Canada,YFR,CYFR,61.1808013916,-113.690002441,526,-7,A,America/Edmonton,airport
Fort Simpson Airport,Fort Simpson,Canada,YFS,CYFS,61.7602005004883,-121.236999511719,555,-7,A,America/Edmonton,airport
Kingston Norman Rogers Airport,Kingston,Canada,YGK,CYGK,44.2252998352051,-76.5969009399414,305,-5,A,America/Toronto,airport
La Grande Rivière Airport,La Grande Riviere,Canada,YGL,CYGL,53.625301361084,-77.7042007446289,639,-5,A,America/Toronto,airport
Gaspé (Michel-Pouliot) Airport,Gaspe,Canada,YGP,CYGP,48.7752990723,-64.4785995483,112,-5,A,America/Toronto,airport
Geraldton Greenstone Regional Airport,Geraldton,Canada,YGQ,CYGQ,49.7783012390137,-86.9393997192383,1144,-5,A,America/Toronto,airport
Îles-de-la-Madeleine Airport,Iles De La Madeleine,Canada,YGR,CYGR,47.4247016906738,-61.7780990600586,35,-5,A,America/Toronto,airport
Hudson Bay Airport,Hudson Bay,Canada,YHB,CYHB,52.8166999817,-102.310997009,1175,-6,N,America/Regina,airport
Dryden Regional Airport,Dryden,Canada,YHD,CYHD,49.8316993713379,-92.7442016601563,1354,-6,A,America/Winnipeg,airport
Ulukhaktok Holman Airport,Holman Island,Canada,YHI,CYHI,70.7628021240234,-117.805999755859,117,-7,A,America/Edmonton,airport
Gjoa Haven Airport,Gjoa Haven,Canada,YHK,CYHK,68.635597229,-95.8497009277,152,-7,A,America/Edmonton,airport
John C. Munro Hamilton International Airport,Hamilton,Canada,YHM,CYHM,43.1735992432,-79.9349975586,780,-5,A,America/Toronto,airport
Montréal / Saint-Hubert Airport,Montreal,Canada,YHU,CYHU,45.5175018311,-73.4169006348,90,-5,A,America/Toronto,airport
Hay River / Merlyn Carter Airport,Hay River,Canada,YHY,CYHY,60.8396987915,-115.782997131,541,-7,A,America/Edmonton,airport
Halifax / Stanfield International Airport,Halifax,Canada,YHZ,CYHZ,44.8807983398,-63.5085983276,477,-4,A,America/Halifax,airport
Atikokan Municipal Airport,Atikokan,Canada,YIB,CYIB,48.7738990784,-91.6386032104,1408,-5,A,America/Coral_Harbour,airport
Pond Inlet Airport,Pond Inlet,Canada,YIO,CYIO,72.6832962036,-77.9666976929,181,-5,A,America/Toronto,airport
St Jean Airport,St. Jean,Canada,YJN,CYJN,45.2943992614746,-73.2810974121094,136,-5,A,America/Toronto,airport
Stephenville Airport,Stephenville,Canada,YJT,CYJT,48.5442008972168,-58.5499992370606,84,-3.5,A,America/St_Johns,airport
Kamloops Airport,Kamloops,Canada,YKA,CYKA,50.7022018433,-120.444000244,1133,-8,A,America/Vancouver,airport
Waterloo Airport,Waterloo,Canada,YKF,CYKF,43.4608001709,-80.3786010742,1055,-5,A,America/Toronto,airport
Schefferville Airport,Schefferville,Canada,YKL,CYKL,54.8053016662598,-66.8052978515625,1709,-5,A,America/Toronto,airport
Kindersley Airport,Kindersley,Canada,YKY,CYKY,51.5175018311,-109.180999756,2277,-6,N,America/Regina,airport
Buttonville Municipal Airport,Toronto,Canada,YKZ,CYKZ,43.8622016906738,-79.370002746582,650,-5,A,America/Toronto,airport
Chapleau Airport,Chapleau,Canada,YLD,CYLD,47.8199996948242,-83.3467025756836,1470,-5,A,America/Toronto,airport
Meadow Lake Airport,Meadow Lake,Canada,YLJ,CYLJ,54.125301361084,-108.523002624512,1576,-6,N,America/Regina,airport
Lloydminster Airport,Lloydminster,Canada,YLL,CYLL,53.3092002868652,-110.072998046875,2193,-7,A,America/Edmonton,airport
Alert Airport,Alert,Canada,YLT,CYLT,82.5177993774,-62.2806015015,100,-5,A,America/Toronto,airport
Kelowna International Airport,Kelowna,Canada,YLW,CYLW,49.9561004639,-119.377998352,1421,-8,A,America/Vancouver,airport
Mayo Airport,Mayo,Canada,YMA,CYMA,63.6164016723633,-135.86799621582,1653,-8,A,America/Vancouver,airport
Moose Jaw Air Vice Marshal C. M. McEwen Airport,Moose Jaw,Canada,YMJ,CYMJ,50.3302993774414,-105.55899810791,1892,-6,N,America/Regina,airport
Fort McMurray Airport,Fort Mcmurray,Canada,YMM,CYMM,56.653301239,-111.222000122,1211,-7,A,America/Edmonton,airport
Moosonee Airport,Moosonee,Canada,YMO,CYMO,51.2910995483398,-80.6078033447266,30,-5,A,America/Toronto,airport
Maniwaki Airport,Maniwaki,Canada,YMW,CYMW,46.2728004456,-75.9906005859,656,-5,A,America/Toronto,airport
Montreal International (Mirabel) Airport,Montreal,Canada,YMX,CYMX,45.6795005798,-74.0386962891,270,-5,A,America/Toronto,airport
Natashquan Airport,Natashquan,Canada,YNA,CYNA,50.189998626709,-61.7891998291016,39,-5,A,America/Toronto,airport
Ottawa / Gatineau Airport,Gatineau,Canada,YND,CYND,45.5217018127,-75.5635986328,211,-5,A,America/Toronto,airport
Matagami Airport,Matagami,Canada,YNM,CYNM,49.7616996765137,-77.8028030395508,918,-5,A,America/Toronto,airport
Old Crow Airport,Old Crow,Canada,YOC,CYOC,67.5706024169922,-139.839004516602,824,-8,A,America/Vancouver,airport
CFB Cold Lake,Cold Lake,Canada,YOD,CYOD,54.4049987792969,-110.278999328613,1775,-7,A,America/Edmonton,airport
High Level Airport,High Level,Canada,YOJ,CYOJ,58.6213989257813,-117.165000915527,1110,-7,A,America/Edmonton,airport
Ottawa Macdonald-Cartier International Airport,Ottawa,Canada,YOW,CYOW,45.3224983215332,-75.6691970825195,374,-5,A,America/Toronto,airport
Prince Albert Glass Field,Prince Albert,Canada,YPA,CYPA,53.2141990662,-105.672996521,1405,-6,N,America/Regina,airport
Peace River Airport,Peace River,Canada,YPE,CYPE,56.2268981933594,-117.446998596191,1873,-7,A,America/Edmonton,airport
Southport Airport,Portage-la-prairie,Canada,YPG,CYPG,49.903099,-98.273817,885,-6,A,America/Winnipeg,airport
Pitt Meadows Airport,Pitt Meadows,Canada,\N,CYPK,49.2160987854004,-122.709999084473,11,-8,A,America/Vancouver,airport
Pickle Lake Airport,Pickle Lake,Canada,YPL,CYPL,51.4463996887207,-90.2142028808594,1267,-5,A,America/Coral_Harbour,airport
Port Menier Airport,Port Menier,Canada,YPN,CYPN,49.8363990783691,-64.2885971069336,167,-5,A,America/Toronto,airport
Peterborough Airport,Peterborough,Canada,YPQ,CYPQ,44.2299995422363,-78.3632965087891,628,-5,A,America/Toronto,airport
Prince Rupert Airport,Prince Pupert,Canada,YPR,CYPR,54.2860984802,-130.445007324,116,-8,A,America/Vancouver,airport
Fort Chipewyan Airport,Fort Chipewyan,Canada,YPY,CYPY,58.7672004699707,-111.116996765137,761,-7,A,America/Edmonton,airport
Muskoka Airport,Muskoka,Canada,YQA,CYQA,44.9747009277344,-79.3032989501953,925,-5,A,America/Toronto,airport
Quebec Jean Lesage International Airport,Quebec,Canada,YQB,CYQB,46.7911,-71.393303,244,-5,A,America/Toronto,airport
Red Deer Regional Airport,Red Deer Industrial,Canada,YQF,CYQF,52.1822013854981,-113.893997192383,2968,-7,A,America/Edmonton,airport
Windsor Airport,Windsor,Canada,YQG,CYQG,42.2756004333496,-82.9555969238281,622,-5,A,America/Toronto,airport
Watson Lake Airport,Watson Lake,Canada,YQH,CYQH,60.1164016723633,-128.822006225586,2255,-8,A,America/Vancouver,airport
Kenora Airport,Kenora,Canada,YQK,CYQK,49.7882995605469,-94.3630981445313,1332,-6,A,America/Winnipeg,airport
Lethbridge County Airport,Lethbridge,Canada,YQL,CYQL,49.6302986145,-112.800003052,3048,-7,A,America/Edmonton,airport
Greater Moncton International Airport,Moncton,Canada,YQM,CYQM,46.1122016906738,-64.678596496582,232,-4,A,America/Halifax,airport
Comox Airport,Comox,Canada,YQQ,CYQQ,49.7108001708984,-124.887001037598,84,-8,A,America/Vancouver,airport
Regina International Airport,Regina,Canada,YQR,CYQR,50.4319000244141,-104.666000366211,1894,-6,N,America/Regina,airport
Thunder Bay Airport,Thunder Bay,Canada,YQT,CYQT,48.3718986511231,-89.3238983154297,653,-5,A,America/Toronto,airport
Grande Prairie Airport,Grande Prairie,Canada,YQU,CYQU,55.1796989441,-118.885002136,2195,-7,A,America/Edmonton,airport
Yorkton Municipal Airport,Yorkton,Canada,YQV,CYQV,51.2647018432617,-102.46199798584,1635,-6,N,America/Regina,airport
North Battleford Airport,North Battleford,Canada,YQW,CYQW,52.7691993713379,-108.244003295898,1799,-6,N,America/Regina,airport
Gander International Airport,Gander,Canada,YQX,CYQX,48.9369010925293,-54.5680999755859,496,-3.5,A,America/St_Johns,airport
Sydney / J.A. Douglas McCurdy Airport,Sydney,Canada,YQY,CYQY,46.1613998413,-60.0477981567,203,-4,A,America/Halifax,airport
Quesnel Airport,Quesnel,Canada,YQZ,CYQZ,53.0261001586914,-122.51000213623,1789,-8,A,America/Vancouver,airport
Resolute Bay Airport,Resolute,Canada,YRB,CYRB,74.7169036865,-94.9693984985,215,-6,A,America/Winnipeg,airport
Rivière-du-Loup Airport,Riviere Du Loup,Canada,YRI,CYRI,47.7644004821777,-69.5847015380859,427,-5,A,America/Toronto,airport
Roberval Airport,Roberval,Canada,YRJ,CYRJ,48.5200004577637,-72.2656021118164,586,-5,A,America/Toronto,airport
Rocky Mountain House Airport,Rocky Mountain House,Canada,YRM,CYRM,52.4296989441,-114.903999329,3244,-7,A,America/Edmonton,airport
Rankin Inlet Airport,Rankin Inlet,Canada,YRT,CYRT,62.8114013672,-92.1157989502,94,-6,A,America/Winnipeg,airport
Sudbury Airport,Sudbury,Canada,YSB,CYSB,46.625,-80.7988967895508,1141,-5,A,America/Toronto,airport
Sherbrooke Airport,Sherbrooke,Canada,YSC,CYSC,45.4385986328125,-71.6913986206055,792,-5,A,America/Toronto,airport
Saint John Airport,St. John,Canada,YSJ,CYSJ,45.3161010742187,-65.8902969360352,357,-4,A,America/Halifax,airport
Fort Smith Airport,Fort Smith,Canada,YSM,CYSM,60.0203018188477,-111.96199798584,671,-7,A,America/Edmonton,airport
Nanisivik Airport,Nanisivik,Canada,YSR,CYSR,72.982201,-84.613602,2106,-5,A,America/Toronto,airport
Summerside Airport,Summerside,Canada,YSU,CYSU,46.440601348877,-63.8335990905762,56,-4,A,America/Halifax,airport
Sachs Harbour (David Nasogaluak Jr. Saaryuaq) Airport,Sachs Harbour,Canada,YSY,CYSY,71.9938964844,-125.242996216,282,-7,A,America/Edmonton,airport
Cape Dorset Airport,Cape Dorset,Canada,YTE,CYTE,64.2300033569,-76.5267028809,164,-5,A,America/Toronto,airport
Thompson Airport,Thompson,Canada,YTH,CYTH,55.8011016845703,-97.8641967773438,729,-6,A,America/Winnipeg,airport
CFB Trenton,Trenton,Canada,YTR,CYTR,44.1189002990723,-77.5280990600586,283,-5,A,America/Toronto,airport
Timmins/Victor M. Power,Timmins,Canada,YTS,CYTS,48.5696983337,-81.376701355,967,-5,A,America/Toronto,airport
Billy Bishop Toronto City Centre Airport,Toronto,Canada,YTZ,CYTZ,43.627499,-79.396202,252,-5,A,America/Toronto,airport
Tuktoyaktuk Airport,Tuktoyaktuk,Canada,YUB,CYUB,69.4332962036133,-133.026000976563,15,-7,A,America/Edmonton,airport
Montreal / Pierre Elliott Trudeau International Airport,Montreal,Canada,YUL,CYUL,45.4706001282,-73.7407989502,118,-5,A,America/Toronto,airport
Repulse Bay Airport,Repulse Bay,Canada,YUT,CYUT,66.5214004517,-86.2247009277,80,-6,A,America/Winnipeg,airport
Hall Beach Airport,Hall Beach,Canada,YUX,CYUX,68.7761001587,-81.2425,30,-5,A,America/Toronto,airport
Rouyn Noranda Airport,Rouyn,Canada,YUY,CYUY,48.2061004638672,-78.8356018066406,988,-5,A,America/Toronto,airport
La Ronge Airport,La Ronge,Canada,YVC,CYVC,55.1514015198,-105.262001038,1242,-6,N,America/Regina,airport
Vermilion Airport,Vermillion,Canada,YVG,CYVG,53.3558006287,-110.823997498,2025,-7,A,America/Edmonton,airport
Qikiqtarjuaq Airport,Broughton Island,Canada,YVM,CYVM,67.5457992554,-64.0314025879,21,-5,A,America/Toronto,airport
Val-d'Or Airport,Val D'or,Canada,YVO,CYVO,48.0532989502,-77.7827987671,1107,-5,A,America/Toronto,airport
Kuujjuaq Airport,Quujjuaq,Canada,YVP,CYVP,58.0960998535156,-68.4269027709961,129,-5,A,America/Toronto,airport
Norman Wells Airport,Norman Wells,Canada,YVQ,CYVQ,65.2816009521484,-126.797996520996,238,-7,A,America/Edmonton,airport
Vancouver International Airport,Vancouver,Canada,YVR,CYVR,49.193901062,-123.183998108,14,-8,A,America/Vancouver,airport
Buffalo Narrows Airport,Buffalo Narrows,Canada,YVT,CYVT,55.8418998718,-108.417999268,1423,-6,N,America/Regina,airport
Wiarton Airport,Wiarton,Canada,YVV,CYVV,44.7458,-81.107201,729,-5,A,America/Toronto,airport
Petawawa Airport,Petawawa,Canada,YWA,CYWA,45.9522018432617,-77.3191986083984,427,-5,A,America/Toronto,airport
Winnipeg / James Armstrong Richardson International Airport,Winnipeg,Canada,YWG,CYWG,49.9099998474,-97.2398986816,783,-6,A,America/Winnipeg,airport
Wabush Airport,Wabush,Canada,YWK,CYWK,52.9219017028809,-66.8644027709961,1808,-4,A,America/Halifax,airport
Williams Lake Airport,Williams Lake,Canada,YWL,CYWL,52.1831016541,-122.054000854,3085,-8,A,America/Vancouver,airport
Wrigley Airport,Wrigley,Canada,YWY,CYWY,63.209400177002,-123.436996459961,489,-7,A,America/Edmonton,airport
Cranbrook/Canadian Rockies International Airport,Cranbrook,Canada,YXC,CYXC,49.610801696777,-115.78199768066,3082,-7,A,America/Edmonton,airport
Edmonton City Centre (Blatchford Field) Airport,Edmonton,Canada,YXD,CYXD,53.5724983215,-113.521003723,2202,-7,A,America/Edmonton,airport
Saskatoon John G. Diefenbaker International Airport,Saskatoon,Canada,YXE,CYXE,52.1707992553711,-106.699996948242,1653,-6,N,America/Regina,airport
Medicine Hat Airport,Medicine Hat,Canada,YXH,CYXH,50.0189018249512,-110.721000671387,2352,-7,A,America/Edmonton,airport
Fort St John Airport,Fort Saint John,Canada,YXJ,CYXJ,56.2380981445313,-120.73999786377,2280,-7,A,America/Dawson_Creek,airport
Sioux Lookout Airport,Sioux Lookout,Canada,YXL,CYXL,50.113899230957,-91.9052963256836,1258,-6,A,America/Winnipeg,airport
Pangnirtung Airport,Pangnirtung,Canada,YXP,CYXP,66.1449966431,-65.7136001587,75,-5,A,America/Toronto,airport
Earlton (Timiskaming Regional) Airport,Earlton,Canada,YXR,CYXR,47.6974006546,-79.8473453522,800,-5,A,America/Toronto,airport
Prince George Airport,Prince George,Canada,YXS,CYXS,53.8894004822,-122.679000854,2267,-8,A,America/Vancouver,airport
Northwest Regional Airport Terrace-Kitimat,Terrace,Canada,YXT,CYXT,54.468498,-128.576009,713,-8,A,America/Vancouver,airport
London Airport,London,Canada,YXU,CYXU,43.035599,-81.1539,912,-5,A,America/Toronto,airport
Abbotsford Airport,Abbotsford,Canada,YXX,CYXX,49.0252990722656,-122.361000061035,195,-8,A,America/Vancouver,airport
Whitehorse / Erik Nielsen International Airport,Whitehorse,Canada,YXY,CYXY,60.7095985413,-135.067001343,2317,-8,A,America/Vancouver,airport
North Bay Airport,North Bay,Canada,YYB,CYYB,46.3636016845703,-79.4227981567383,1215,-5,A,America/Toronto,airport
Calgary International Airport,Calgary,Canada,YYC,CYYC,51.113899231,-114.019996643,3557,-7,A,America/Edmonton,airport
Smithers Airport,Smithers,Canada,YYD,CYYD,54.8246994018555,-127.182998657227,1712,-8,A,America/Vancouver,airport
Fort Nelson Airport,Fort Nelson,Canada,YYE,CYYE,58.8363990784,-122.597000122,1253,-8,A,America/Vancouver,airport
Penticton Airport,Penticton,Canada,YYF,CYYF,49.4631004333496,-119.601997375488,1129,-8,A,America/Vancouver,airport
Charlottetown Airport,Charlottetown,Canada,YYG,CYYG,46.2900009155274,-63.1211013793945,160,-4,A,America/Halifax,airport
Taloyoak Airport,Spence Bay,Canada,YYH,CYYH,69.5466995239,-93.5766983032,92,-7,A,America/Edmonton,airport
Victoria International Airport,Victoria,Canada,YYJ,CYYJ,48.646900177,-123.426002502,63,-8,A,America/Vancouver,airport
Lynn Lake Airport,Lynn Lake,Canada,YYL,CYYL,56.863899230957,-101.075996398926,1170,-6,A,America/Winnipeg,airport
Swift Current Airport,Swift Current,Canada,YYN,CYYN,50.2919006348,-107.691001892,2680,-6,N,America/Regina,airport
Churchill Airport,Churchill,Canada,YYQ,CYYQ,58.739200592041,-94.0650024414063,94,-6,A,America/Winnipeg,airport
Goose Bay Airport,Goose Bay,Canada,YYR,CYYR,53.3191986084,-60.4258003235,160,-4,A,America/Halifax,airport
St. John's International Airport,St. John's,Canada,YYT,CYYT,47.618598938,-52.7518997192,461,-3.5,A,America/St_Johns,airport
Kapuskasing Airport,Kapuskasing,Canada,YYU,CYYU,49.4138984680176,-82.4674987792969,743,-5,A,America/Toronto,airport
Armstrong Airport,Armstrong,Canada,YYW,CYYW,50.2902984619141,-88.9096984863281,1058,-5,A,America/Toronto,airport
Mont Joli Airport,Mont Joli,Canada,YYY,CYYY,48.6086006164551,-68.2080993652344,172,-5,A,America/Toronto,airport
Lester B. Pearson International Airport,Toronto,Canada,YYZ,CYYZ,43.6772003174,-79.6305999756,569,-5,A,America/Toronto,airport
Downsview Airport,Toronto,Canada,YZD,CYZD,43.7425003051758,-79.4655990600586,652,-5,A,America/Toronto,airport
Gore Bay Manitoulin Airport,Gore Bay,Canada,YZE,CYZE,45.8852996826172,-82.5678024291992,635,-5,A,America/Toronto,airport
Yellowknife Airport,Yellowknife,Canada,YZF,CYZF,62.4627990722656,-114.440002441406,675,-7,A,America/Edmonton,airport
Slave Lake Airport,Slave Lake,Canada,YZH,CYZH,55.2930984497,-114.777000427,1912,-7,A,America/Edmonton,airport
Sandspit Airport,Sandspit,Canada,YZP,CYZP,53.2542991638,-131.813995361,21,-8,A,America/Vancouver,airport
Chris Hadfield Airport,Sarnia,Canada,YZR,CYZR,42.9994010925293,-82.3088989257812,594,-5,A,America/Toronto,airport
Port Hardy Airport,Port Hardy,Canada,YZT,CYZT,50.6805992126465,-127.366996765137,71,-8,A,America/Vancouver,airport
Whitecourt Airport,Whitecourt,Canada,YZU,CYZU,54.1439018249512,-115.787002563477,2567,-7,A,America/Edmonton,airport
Sept-Îles Airport,Sept-iles,Canada,YZV,CYZV,50.2233009338379,-66.2656021118164,180,-5,A,America/Toronto,airport
Teslin Airport,Teslin,Canada,YZW,CYZW,60.1727981567383,-132.74299621582,2313,-8,A,America/Vancouver,airport
CFB Greenwood,Greenwood,Canada,YZX,CYZX,44.9844017028809,-64.9169006347656,92,-4,A,America/Halifax,airport
Faro Airport,Faro,Canada,ZFA,CZFA,62.2075004577637,-133.376007080078,2351,-8,A,America/Vancouver,airport
Fort Mcpherson Airport,Fort Mcpherson,Canada,ZFM,CZFM,67.4075012207031,-134.860992431641,116,-7,A,America/Edmonton,airport
Blida Airport,Blida,Algeria,\N,DAAB,36.5036010742187,2.81416988372803,535,1,N,Africa/Algiers,airport
Bou Saada Airport,Bou Saada,Algeria,\N,DAAD,35.3325004577637,4.20638990402222,1506,1,N,Africa/Algiers,airport
Soummam Airport,Bejaja,Algeria,BJA,DAAE,36.7120018005,5.06992006302,20,1,N,Africa/Algiers,airport
Houari Boumediene Airport,Algier,Algeria,ALG,DAAG,36.6910018920898,3.21540999412537,82,1,N,Africa/Algiers,airport
Djanet Inedbirene Airport,Djanet,Algeria,DJG,DAAJ,24.2928009033,9.45244026184,3176,1,N,Africa/Algiers,airport
Boufarik Airport,Boufarik,Algeria,QFD,DAAK,36.545799,2.87611,335,1,N,Africa/Algiers,airport
Reggane Airport,Reggan,Algeria,\N,DAAN,26.7101001739502,0.285647004842758,955,1,N,Africa/Algiers,airport
Illizi Takhamalt Airport,Illizi,Algeria,VVZ,DAAP,26.7234992981,8.62265014648,1778,1,N,Africa/Algiers,airport
Ain Oussera Airport,Ain Oussera,Algeria,\N,DAAQ,35.5253982543945,2.8787100315094,2132,1,N,Africa/Algiers,airport
Aguenar – Hadj Bey Akhamok Airport,Tamanrasset,Algeria,TMR,DAAT,22.8115005493,5.45107984543,4518,1,N,Africa/Algiers,airport
Jijel Ferhat Abbas Airport,Jijel,Algeria,GJL,DAAV,36.7951011658,5.87361001968,36,1,N,Africa/Algiers,airport
Mecheria Airport,Mecheria,Algeria,\N,DAAY,33.535900116,-0.242353007197,3855,1,N,Africa/Algiers,airport
Relizane Airport,Relizane,Algeria,\N,DAAZ,35.7522010803223,0.626272022724152,282,1,N,Africa/Algiers,airport
Annaba Airport,Annaba,Algeria,AAE,DABB,36.8222007751465,7.80916976928711,16,1,N,Africa/Algiers,airport
Mohamed Boudiaf International Airport,Constantine,Algeria,CZL,DABC,36.2760009765625,6.62038993835449,2265,1,N,Africa/Algiers,airport
Cheikh Larbi Tébessi Airport,Tebessa,Algeria,TEE,DABS,35.4315986633,8.12071990967,2661,1,N,Africa/Algiers,airport
Hassi R'Mel Airport,Tilrempt,Algeria,HRM,DAFH,32.9304008483887,3.31153988838196,2540,1,N,Africa/Algiers,airport
Bou Chekif Airport,Tiaret,Algeria,TID,DAOB,35.3410987854,1.46315002441,3245,1,N,Africa/Algiers,airport
Bou Sfer Airport,Bou Sfer,Algeria,\N,DAOE,35.7354011535645,-0.805388987064362,187,1,N,Africa/Algiers,airport
Tindouf Airport,Tindouf,Algeria,TIN,DAOF,27.7003993988,-8.1670999527,1453,1,N,Africa/Algiers,airport
Ech Cheliff Airport,Ech-cheliff,Algeria,QAS,DAOI,36.2126998901,1.33176994324,463,1,N,Africa/Algiers,airport
Tafaraoui Airport,Oran,Algeria,TAF,DAOL,35.5424003601074,-0.532278001308441,367,1,N,Africa/Algiers,airport
Zenata – Messali El Hadj Airport,Tlemcen,Algeria,TLM,DAON,35.0167007446,-1.45000004768,814,1,N,Africa/Algiers,airport
Es Senia Airport,Oran,Algeria,ORN,DAOO,35.6239013672,-0.621182978153,295,1,N,Africa/Algiers,airport
Sidi Bel Abbes Airport,Sidi Bel Abbes,Algeria,\N,DAOS,35.1717987061,-0.593275010586,1614,1,N,Africa/Algiers,airport
Ghriss Airport,Ghriss,Algeria,MUW,DAOV,35.2076988220215,0.147141993045807,1686,1,N,Africa/Algiers,airport
Touat Cheikh Sidi Mohamed Belkebir Airport,Adrar,Algeria,AZR,DAUA,27.8376007080078,-0.186414003372192,919,1,N,Africa/Algiers,airport
Biskra Airport,Biskra,Algeria,BSK,DAUB,34.7933006287,5.73823022842,289,1,N,Africa/Algiers,airport
El Golea Airport,El Golea,Algeria,ELG,DAUE,30.5713005065918,2.85959005355835,1306,1,N,Africa/Algiers,airport
Noumérat - Moufdi Zakaria Airport,Ghardaia,Algeria,GHA,DAUG,32.3841018676758,3.79411005973816,1512,1,N,Africa/Algiers,airport
Oued Irara Airport,Hassi Messaoud,Algeria,HME,DAUH,31.6730003357,6.14043998718,463,1,N,Africa/Algiers,airport
In Salah Airport,In Salah,Algeria,INZ,DAUI,27.2509994507,2.51202011108,896,1,N,Africa/Algiers,airport
Touggourt Sidi Madhi Airport,Touggourt,Algeria,TGR,DAUK,33.067798614502,6.0886697769165,279,1,N,Africa/Algiers,airport
Laghouat Airport,Laghouat,Algeria,LOO,DAUL,33.7644004822,2.92833995819,2510,1,N,Africa/Algiers,airport
Timimoun Airport,Timimoun,Algeria,TMX,DAUT,29.2371006012,0.276033014059,1027,1,N,Africa/Algiers,airport
Ain el Beida Airport,Ouargla,Algeria,OGX,DAUU,31.917200088501,5.41277980804443,492,1,N,Africa/Algiers,airport
In Aménas Airport,Zarzaitine,Algeria,IAM,DAUZ,28.0515003204,9.64291000366,1847,1,N,Africa/Algiers,airport
Cadjehoun Airport,Cotonou,Benin,COO,DBBB,6.3572301864624,2.38435006141663,19,1,N,Africa/Porto-Novo,airport
Ouagadougou Airport,Ouagadougou,Burkina Faso,OUA,DFFD,12.3531999588013,-1.51242005825043,1037,0,N,Africa/Ouagadougou,airport
Bobo Dioulasso Airport,Bobo-dioulasso,Burkina Faso,BOY,DFOO,11.1600999832153,-4.33096981048584,1511,0,N,Africa/Ouagadougou,airport
Kotoka International Airport,Accra,Ghana,ACC,DGAA,5.60518980026245,-0.166786000132561,205,0,N,Africa/Accra,airport
Tamale Airport,Tamale,Ghana,TML,DGLE,9.55718994140625,-0.863214015960693,553,0,N,Africa/Accra,airport
Wa Airport,Wa,Ghana,\N,DGLW,10.0826997756958,-2.50768995285034,1060,0,N,Africa/Accra,airport
Sunyani Airport,Sunyani,Ghana,NYI,DGSN,7.36183023452759,-2.32875990867615,1014,0,N,Africa/Accra,airport
Takoradi Airport,Takoradi,Ghana,TKD,DGTK,4.8960599899292,-1.77476000785828,21,0,N,Africa/Accra,airport
Port Bouet Airport,Abidjan,Cote d'Ivoire,ABJ,DIAP,5.261390209198,-3.9262900352478,21,0,N,Africa/Abidjan,airport
Bouaké Airport,Bouake,Cote d'Ivoire,BYK,DIBK,7.73880004882813,-5.07366991043091,1230,0,N,Africa/Abidjan,airport
Daloa Airport,Daloa,Cote d'Ivoire,DJO,DIDL,6.79280996322632,-6.47318983078003,823,0,N,Africa/Abidjan,airport
Korhogo Airport,Korhogo,Cote d'Ivoire,HGO,DIKO,9.38718032837,-5.55666017532,1214,0,N,Africa/Abidjan,airport
Man Airport,Man,Cote d'Ivoire,MJC,DIMN,7.27206993103027,-7.58735990524292,1089,0,N,Africa/Abidjan,airport
San Pedro Airport,San Pedro,Cote d'Ivoire,SPY,DISP,4.74671983718872,-6.66082000732422,26,0,N,Africa/Abidjan,airport
Yamoussoukro Airport,Yamoussoukro,Cote d'Ivoire,ASK,DIYO,6.9031701088,-5.36558008194,699,0,N,Africa/Abidjan,airport
Nnamdi Azikiwe International Airport,Abuja,Nigeria,ABV,DNAA,9.00679016113281,7.26316976547241,1123,1,N,Africa/Lagos,airport
Akure Airport,Akure,Nigeria,AKR,DNAK,7.24673986434937,5.30101013183594,1100,1,N,Africa/Lagos,airport
Benin Airport,Benin,Nigeria,BNI,DNBE,6.31697988510132,5.59950017929077,258,1,N,Africa/Lagos,airport
Margaret Ekpo International Airport,Calabar,Nigeria,CBQ,DNCA,4.97601985931397,8.34720039367676,210,1,N,Africa/Lagos,airport
Akanu Ibiam International Airport,Enugu,Nigeria,ENU,DNEN,6.47426986694336,7.56196022033691,466,1,N,Africa/Lagos,airport
Gusau Airport,Gusau,Nigeria,QUS,DNGU,12.1716995239258,6.69610977172852,1520,1,N,Africa/Lagos,airport
Ibadan Airport,Ibadan,Nigeria,IBA,DNIB,7.36246013641357,3.97832989692688,725,1,N,Africa/Lagos,airport
Ilorin International Airport,Ilorin,Nigeria,ILR,DNIL,8.44021034240723,4.49391984939575,1126,1,N,Africa/Lagos,airport
Yakubu Gowon Airport,Jos,Nigeria,JOS,DNJO,9.63982963562012,8.86905002593994,4232,1,N,Africa/Lagos,airport
Kaduna Airport,Kaduna,Nigeria,KAD,DNKA,10.6960000991821,7.32010984420776,2073,1,N,Africa/Lagos,airport
Mallam Aminu International Airport,Kano,Nigeria,KAN,DNKN,12.0475997924805,8.52462005615234,1562,1,N,Africa/Lagos,airport
Maiduguri International Airport,Maiduguri,Nigeria,MIU,DNMA,11.855299949646,13.0809001922607,1099,1,N,Africa/Lagos,airport
Makurdi Airport,Makurdi,Nigeria,MDI,DNMK,7.70387983322144,8.61394023895264,371,1,N,Africa/Lagos,airport
Murtala Muhammed International Airport,Lagos,Nigeria,LOS,DNMM,6.57737016677856,3.32116007804871,135,1,N,Africa/Lagos,airport
Minna Airport,Minna,Nigeria,MXJ,DNMN,9.65217018127441,6.4622597694397,834,1,N,Africa/Lagos,airport
Port Harcourt International Airport,Port Hartcourt,Nigeria,PHC,DNPO,5.01549005508423,6.94959020614624,87,1,N,Africa/Lagos,airport
Sadiq Abubakar III International Airport,Sokoto,Nigeria,SKO,DNSO,12.9162998199463,5.20719003677368,1010,1,N,Africa/Lagos,airport
Yola Airport,Yola,Nigeria,YOL,DNYO,9.25755023956299,12.4303998947144,599,1,N,Africa/Lagos,airport
Zaria Airport,Zaria,Nigeria,ZAR,DNZA,11.1302003860474,7.68581008911133,2170,1,N,Africa/Lagos,airport
Maradi Airport,Maradi,Niger,MFQ,DRRM,13.5024995803833,7.12674999237061,1240,1,N,Africa/Niamey,airport
Diori Hamani International Airport,Niamey,Niger,NIM,DRRN,13.481499671936,2.18360996246338,732,1,N,Africa/Niamey,airport
Tahoua Airport,Tahoua,Niger,THZ,DRRT,14.8756999969482,5.26535987854004,1266,1,N,Africa/Niamey,airport
Mano Dayak International Airport,Agadez,Niger,AJY,DRZA,16.9659996032715,8.00010967254639,1657,1,N,Africa/Niamey,airport
Dirkou Airport,Dirkou,Niger,\N,DRZD,18.9687004089355,12.8687000274658,1273,1,N,Africa/Niamey,airport
Diffa Airport,Diffa,Niger,\N,DRZF,13.3729000091553,12.6267004013062,994,1,N,Africa/Niamey,airport
Zinder Airport,Zinder,Niger,ZND,DRZR,13.7790002822876,8.98375988006592,1516,1,N,Africa/Niamey,airport
Monastir Habib Bourguiba International Airport,Monastir,Tunisia,MIR,DTMB,35.7580986022949,10.7546997070313,9,1,E,Africa/Tunis,airport
Tunis Carthage International Airport,Tunis,Tunisia,TUN,DTTA,36.851001739502,10.2271995544434,22,1,E,Africa/Tunis,airport
Sidi Ahmed Air Base,Bizerte,Tunisia,\N,DTTB,37.2453994751,9.79144954681,20,1,E,Africa/Tunis,airport
Remada Air Base,Remada,Tunisia,\N,DTTD,32.3061981201172,10.3821001052856,1004,1,E,Africa/Tunis,airport
Gafsa Ksar International Airport,Gafsa,Tunisia,GAF,DTTF,34.4220008850098,8.82250022888184,1060,1,E,Africa/Tunis,airport
Gabès Matmata International Airport,Gabes,Tunisia,GAE,DTTG,33.8768997192383,10.1033000946045,26,1,E,Africa/Tunis,airport
Borj El Amri Airport,Bordj El Amri,Tunisia,\N,DTTI,36.7212982177734,9.94314956665039,110,1,E,Africa/Tunis,airport
Djerba Zarzis International Airport,Djerba,Tunisia,DJE,DTTJ,33.875,10.7755002975464,19,1,E,Africa/Tunis,airport
El Borma Airport,El Borma,Tunisia,EBM,DTTR,31.7042999267578,9.25461959838867,827,1,E,Africa/Tunis,airport
Sfax Thyna International Airport,Sfax,Tunisia,SFA,DTTX,34.7179985046387,10.6909999847412,85,1,E,Africa/Tunis,airport
Tozeur Nefta International Airport,Tozeur,Tunisia,TOE,DTTZ,33.9397010803223,8.11056041717529,287,1,E,Africa/Tunis,airport
Niamtougou International Airport,Niatougou,Togo,LRL,DXNG,9.76733016967773,1.09124994277954,1515,0,N,Africa/Lome,airport
Lomé-Tokoin Airport,Lome,Togo,LFW,DXXX,6.16560983657837,1.25451004505157,72,0,N,Africa/Lome,airport
Antwerp International Airport (Deurne),Antwerp,Belgium,ANR,EBAW,51.1893997192,4.46027994156,39,1,E,Europe/Brussels,airport
Beauvechain Air Base,Beauvechain,Belgium,\N,EBBE,50.7585983276367,4.76833009719849,370,1,E,Europe/Brussels,airport
Kleine Brogel Air Base,Kleine Brogel,Belgium,\N,EBBL,51.168301,5.47,200,1,E,Europe/Brussels,airport
Brussels Airport,Brussels,Belgium,BRU,EBBR,50.9014015198,4.48443984985,184,1,E,Europe/Brussels,airport
Jehonville Air Base,Bertrix,Belgium,\N,EBBX,49.8917007446289,5.22388982772827,1514,1,E,Europe/Brussels,airport
Brussels South Charleroi Airport,Charleroi,Belgium,CRL,EBCI,50.4592018127,4.45382022858,614,1,E,Europe/Brussels,airport
Chièvres Air Base,Chievres,Belgium,\N,EBCV,50.5758018493652,3.83100008964539,194,1,E,Europe/Brussels,airport
Koksijde Air Base,Koksijde,Belgium,\N,EBFN,51.0903015136719,2.65278005599976,20,1,E,Europe/Brussels,airport
Florennes Air Base,Florennes,Belgium,\N,EBFS,50.2433013916,4.64583015442,935,1,E,Europe/Brussels,airport
Wevelgem Airport,Kortrijk-vevelgem,Belgium,QKT,EBKT,50.817199707,3.20472002029,64,1,E,Europe/Brussels,airport
Liège Airport,Liege,Belgium,LGG,EBLG,50.6374015808106,5.44322013854981,659,1,E,Europe/Brussels,airport
Ostend-Bruges International Airport,Ostend,Belgium,OST,EBOS,51.1988983154,2.8622200489,13,1,E,Europe/Brussels,airport
Zutendaal Air Base,Zutendaal,Belgium,\N,EBSL,50.9474983215332,5.59055995941162,312,1,E,Europe/Brussels,airport
Limburg Regional Airport,Sint-truiden,Belgium,\N,EBST,50.7919006348,5.20167016983,246,1,E,Europe/Brussels,airport
Saint Hubert Air Base,St.-hubert,Belgium,\N,EBSU,50.0344009399414,5.44081020355225,1930,1,E,Europe/Brussels,airport
Ursel Air Base,Ursel,Belgium,\N,EBUL,51.1441993713379,3.47555994987488,95,1,E,Europe/Brussels,airport
Weelde Air Base,Weelde,Belgium,\N,EBWE,51.3947982788086,4.96018981933594,105,1,E,Europe/Brussels,airport
Oostmalle Air Base,Zoersel,Belgium,\N,EBZR,51.264702,4.75333,53,1,E,Europe/Brussels,airport
Bautzen Airport,Bautzen,Germany,\N,EDAB,51.1936111450195,14.5197219848633,568,1,E,Europe/Berlin,airport
Altenburg-Nobitz Airport,Altenburg,Germany,AOC,EDAC,50.9819450378418,12.5063886642456,640,1,E,Europe/Berlin,airport
Dessau Airport,Dessau,Germany,\N,EDAD,51.831693541,12.1909618378,187,1,E,Europe/Berlin,airport
Eisenhüttenstadt Airport,Eisenhuettenstadt,Germany,\N,EDAE,52.195856,14.58753,144,1,E,Europe/Berlin,airport
Großenhain Airport,Suhl,Germany,\N,EDAK,51.3080558776855,13.5555562973022,417,1,E,Europe/Berlin,airport
Merseburg Airport,Muehlhausen,Germany,\N,EDAM,51.3630556,11.9408333,341,1,E,Europe/Berlin,airport
Halle-Oppin Airport,Halle,Germany,\N,EDAQ,51.552223,12.053889,348,1,E,Europe/Berlin,airport
Riesa-Göhlis Airport,Riesa,Germany,\N,EDAU,51.2936096191,13.3561105728,322,1,E,Europe/Berlin,airport
Rechlin-Lärz Airport,Rechlin-laerz,Germany,\N,EDAX,53.306388855,12.7522220612,220,1,E,Europe/Berlin,airport
Strausberg Airport,Strausberg,Germany,\N,EDAY,52.5805549621582,13.9166669845581,262,1,E,Europe/Berlin,airport
Schönhagen Airport,Schoenhagen,Germany,\N,EDAZ,52.2036094666,13.1563892365,131,1,E,Europe/Berlin,airport
Barth Airport,Barth,Germany,BBH,EDBH,54.338253,12.710515,23,1,E,Europe/Berlin,airport
Jena-Schöngleina Airport,Jena,Germany,\N,EDBJ,50.9152793884277,11.7144441604614,1247,1,E,Europe/Berlin,airport
Kyritz Airport,Kyritz,Germany,\N,EDBK,52.918888092041,12.4252777099609,131,1,E,Europe/Berlin,airport
"Magdeburg \""City\"" Airport",Magdeburg,Germany,\N,EDBM,52.073612,11.626389,259,1,E,Europe/Berlin,airport
Rothenburg/Görlitz Airport,Rothenburg/ol,Germany,\N,EDBR,51.3633346557617,14.9499998092651,518,1,E,Europe/Berlin,airport
Anklam Airport,Anklam,Germany,\N,EDCA,53.8327789306641,13.6686105728149,16,1,E,Europe/Berlin,airport
Cottbus-Drewitz Airport,Cottbus,Germany,\N,EDCD,51.889442,14.531944,272,1,E,Europe/Berlin,airport
Kamenz Airport,Kamenz,Germany,\N,EDCM,51.2969436645508,14.1274995803833,495,1,E,Europe/Berlin,airport
Berlin-Schönefeld International Airport,Berlin,Germany,SXF,EDDB,52.380001068115,13.522500038147,157,1,E,Europe/Berlin,airport
Dresden Airport,Dresden,Germany,DRS,EDDC,51.1328010559082,13.7672004699707,755,1,E,Europe/Berlin,airport
Erfurt Airport,Erfurt,Germany,ERF,EDDE,50.9798011779785,10.9581003189087,1036,1,E,Europe/Berlin,airport
Frankfurt am Main International Airport,Frankfurt,Germany,FRA,EDDF,50.0333333,8.5705556,364,1,E,Europe/Berlin,airport
Münster Osnabrück Airport,Munster,Germany,FMO,EDDG,52.134601593,7.68483018875,160,1,E,Europe/Berlin,airport
Hamburg Airport,Hamburg,Germany,HAM,EDDH,53.630401611328,9.9882297515869,53,1,E,Europe/Berlin,airport
Berlin-Tempelhof International Airport,Berlin,Germany,THF,EDDI,52.4729995727539,13.4039001464844,167,1,E,Europe/Berlin,airport
Cologne Bonn Airport,Cologne,Germany,CGN,EDDK,50.8658981323,7.1427397728,302,1,E,Europe/Berlin,airport
Düsseldorf International Airport,Duesseldorf,Germany,DUS,EDDL,51.2895011901856,6.76677989959717,147,1,E,Europe/Berlin,airport
Munich International Airport,Munich,Germany,MUC,EDDM,48.353801727295,11.786100387573,1487,1,E,Europe/Berlin,airport
Nuremberg Airport,Nuernberg,Germany,NUE,EDDN,49.498699,11.0780556,1046,1,E,Europe/Berlin,airport
Leipzig Halle Airport,Leipzig,Germany,LEJ,EDDP,51.4238889,12.2363889,465,1,E,Europe/Berlin,airport
Saarbrücken Airport,Saarbruecken,Germany,SCN,EDDR,49.2145996094,7.10950994492,1058,1,E,Europe/Berlin,airport
Stuttgart Airport,Stuttgart,Germany,STR,EDDS,48.6898994446,9.22196006775,1276,1,E,Europe/Berlin,airport
Berlin-Tegel International Airport,Berlin,Germany,TXL,EDDT,52.5597000122,13.2876996994,122,1,E,Europe/Berlin,airport
Hannover Airport,Hannover,Germany,HAJ,EDDV,52.461101532,9.68507957458,183,1,E,Europe/Berlin,airport
Bremen Airport,Bremen,Germany,BRE,EDDW,53.0475006104,8.78666973114,14,1,E,Europe/Berlin,airport
Frankfurt-Egelsbach Airport,Egelsbach,Germany,QEF,EDFE,49.9599990844727,8.64583301544189,384,1,E,Europe/Berlin,airport
Frankfurt-Hahn Airport,Hahn,Germany,HHN,EDFH,49.9486999512,7.26388978958,1649,1,E,Europe/Berlin,airport
Mannheim-City Airport,Mannheim,Germany,MHG,EDFM,49.4730567932129,8.51416683197022,308,1,E,Europe/Berlin,airport
Allendorf/Eder Airport,Allendorf,Germany,\N,EDFQ,51.0349998474121,8.680832862854,1158,1,E,Europe/Berlin,airport
Worms Airport,Worms,Germany,\N,EDFV,49.606945,8.368333,295,1,E,Europe/Berlin,airport
Mainz-Finthen Airport,Mainz,Germany,\N,EDFZ,49.967499,8.147222,525,1,E,Europe/Berlin,airport
Eisenach-Kindel Airport,Eisenach,Germany,\N,EDGE,50.991604,10.47973,1112,1,E,Europe/Berlin,airport
Siegerland Airport,Siegerland,Germany,\N,EDGS,50.7076988220215,8.08296966552734,1966,1,E,Europe/Berlin,airport
Hamburg-Finkenwerder Airport,Hamburg,Germany,XFW,EDHI,53.5352783203125,9.83555603027344,23,1,E,Europe/Berlin,airport
Kiel-Holtenau Airport,Kiel,Germany,KEL,EDHK,54.3794441223145,10.1452779769897,102,1,E,Europe/Berlin,airport
Lübeck Blankensee Airport,Luebeck,Germany,LBC,EDHL,53.8054008484,10.7192001343,53,1,E,Europe/Berlin,airport
Flugplatz Dahlemer Binz,Dahlemer Binz,Germany,\N,EDKV,50.405555725,6.5288891792,1896,1,E,Europe/Berlin,airport
Meinerzhagen Airport,Meinerzhagen,Germany,\N,EDKZ,51.0999984741211,7.59999990463257,1549,1,E,Europe/Berlin,airport
Arnsberg-Menden Airport,Arnsberg,Germany,ZCA,EDLA,51.4838905334473,7.89833307266235,794,1,E,Europe/Berlin,airport
Essen Mulheim Airport,Essen,Germany,ESS,EDLE,51.4023017883301,6.93732976913452,424,1,E,Europe/Berlin,airport
Bielefeld Airport,Bielefeld,Germany,\N,EDLI,51.9647216797,8.54444408417,433,1,E,Europe/Berlin,airport
Mönchengladbach Airport,Moenchengladbach,Germany,MGL,EDLN,51.2302780151367,6.50444412231445,125,1,E,Europe/Berlin,airport
Paderborn Lippstadt Airport,Paderborn,Germany,PAD,EDLP,51.6141014099,8.61631965637,699,1,E,Europe/Berlin,airport
Stadtlohn-Vreden Airport,Stadtlohn,Germany,\N,EDLS,51.9958343505859,6.84055614471436,157,1,E,Europe/Berlin,airport
Dortmund Airport,Dortmund,Germany,DTM,EDLW,51.5182991028,7.61223983765,425,1,E,Europe/Berlin,airport
Augsburg Airport,Augsburg,Germany,AGB,EDMA,48.425278,10.931667,1516,1,E,Europe/Berlin,airport
Biberach a.d. Riß Airport,Biberach,Germany,\N,EDMB,48.1111106872559,9.76277828216553,1903,1,E,Europe/Berlin,airport
Eggenfelden Airport,Eggenfelden,Germany,\N,EDME,48.396110534668,12.7236108779907,1342,1,E,Europe/Berlin,airport
Mindelheim-Mattsies Airport,Mindelheim,Germany,\N,EDMN,48.1069450378418,10.5249996185303,1857,1,E,Europe/Berlin,airport
Oberpfaffenhofen Airport,Oberpfaffenhofen,Germany,OBF,EDMO,48.0814018249512,11.2831001281738,1947,1,E,Europe/Berlin,airport
Straubing Airport,Straubing,Germany,RBM,EDMS,48.9008331298828,12.5166673660278,1047,1,E,Europe/Berlin,airport
Vilshofen Airport,Vilshofen,Germany,\N,EDMV,48.6349983215332,13.1955556869507,991,1,E,Europe/Berlin,airport
Leutkirch-Unterzeil Airport,Leutkirch,Germany,\N,EDNL,47.8588905334473,10.0141668319702,2100,1,E,Europe/Berlin,airport
Friedrichshafen Airport,Friedrichshafen,Germany,FDH,EDNY,47.6712989807,9.51148986816,1367,1,E,Europe/Berlin,airport
Schwerin Parchim Airport,Parchim,Germany,SZW,EDOP,53.426998,11.7834,166,1,E,Europe/Berlin,airport
Stendal-Borstel Airport,Stendal,Germany,ZSN,EDOV,52.6288871765137,11.8186111450195,184,1,E,Europe/Berlin,airport
Aalen-Heidenheim/Elchingen Airport,Aalen-heidenheim,Germany,\N,EDPA,48.7777786254883,10.2647218704224,1916,1,E,Europe/Berlin,airport
Bayreuth Airport,Bayreuth,Germany,BYU,EDQD,49.9850006103516,11.6400003433228,1601,1,E,Europe/Berlin,airport
Burg Feuerstein Airport,Burg Feuerstein,Germany,\N,EDQE,49.794166564941,11.133610725403,1673,1,E,Europe/Berlin,airport
Hof-Plauen Airport,Hof,Germany,HOQ,EDQM,50.2886123657227,11.8563890457153,1959,1,E,Europe/Berlin,airport
Haßfurt-Schweinfurt Airport,Hassfurt,Germany,\N,EDQT,50.0180549621582,10.5294437408447,719,1,E,Europe/Berlin,airport
Koblenz-Winningen Airport,Koblenz,Germany,ZNV,EDRK,50.3255577087402,7.5286111831665,640,1,E,Europe/Berlin,airport
Trier-Föhren Airport,Trier,Germany,ZQF,EDRT,49.8638877868652,6.78749990463257,666,1,E,Europe/Berlin,airport
Speyer Airport,Speyer,Germany,ZQC,EDRY,49.3047218322754,8.45138931274414,312,1,E,Europe/Berlin,airport
Zweibrücken Airport,Zweibruecken,Germany,ZQW,EDRZ,49.209400177002,7.40055990219116,1132,1,E,Europe/Berlin,airport
Donaueschingen-Villingen Airport,Donaueschingen,Germany,ZQL,EDTD,47.9733314514,8.52222156525,2231,1,E,Europe/Berlin,airport
Freiburg i. Br. Airport,Freiburg,Germany,\N,EDTF,48.0227775574,7.83249998093,801,1,E,Europe/Berlin,airport
Mengen-Hohentengen Airport,Mengen,Germany,\N,EDTM,48.0538902282715,9.37277793884277,1818,1,E,Europe/Berlin,airport
Adolf Würth Airport,Schwaebisch Hall,Germany,\N,EDTY,49.1183319092,9.78388881683,1299,1,E,Europe/Berlin,airport
Finsterwalde/Schacksdorf Airport,Soest,Germany,\N,EDUS,51.607498,13.743611,384,1,E,Europe/Berlin,airport
Braunschweig Wolfsburg Airport,Braunschweig,Germany,BWE,EDVE,52.319199,10.5561,295,1,E,Europe/Berlin,airport
Kassel-Calden Airport,Kassel,Germany,KSF,EDVK,51.417273,9.384967,820,1,E,Europe/Berlin,airport
Hildesheim Airport,Hildesheim,Germany,\N,EDVM,52.1813888549805,9.94638919830322,292,1,E,Europe/Berlin,airport
Bremerhaven Airport,Bremerhaven,Germany,BRV,EDWB,53.506943,8.572778,10,1,E,Europe/Berlin,airport
Emden Airport,Emden,Germany,EME,EDWE,53.3911094665527,7.22749996185303,3,1,E,Europe/Berlin,airport
Leer-Papenburg Airport,Leer,Germany,\N,EDWF,53.2719421386719,7.44166707992554,3,1,E,Europe/Berlin,airport
Wilhelmshaven-Mariensiel Airport,Wilhelmshaven,Germany,WVN,EDWI,53.5022201538086,8.05222225189209,16,1,E,Europe/Berlin,airport
Borkum Airport,Borkum,Germany,BMK,EDWR,53.5963897705,6.70916700363,3,1,E,Europe/Berlin,airport
Norderney Airport,Norderney,Germany,NRD,EDWY,53.7069435119629,7.23000001907349,7,1,E,Europe/Berlin,airport
Flensburg-Schäferhaus Airport,Flensburg,Germany,FLF,EDXF,54.7733345031738,9.37888908386231,131,1,E,Europe/Berlin,airport
Rendsburg-Schachtholm Airport,Rendsburg,Germany,\N,EDXR,54.2200012207031,9.59944438934326,23,1,E,Europe/Berlin,airport
Westerland Sylt Airport,Westerland,Germany,GWT,EDXW,54.9132003784,8.34047031403,51,1,E,Europe/Berlin,airport
Ämari Air Base,Armari Air Force Base,Estonia,\N,EEEI,59.2602996826172,24.2084999084473,65,2,E,Europe/Tallinn,airport
Kärdla Airport,Kardla,Estonia,KDL,EEKA,58.9907989501953,22.8306999206543,18,2,E,Europe/Tallinn,airport
Kuressaare Airport,Kuressaare,Estonia,URE,EEKE,58.2299003601074,22.50950050354,14,2,E,Europe/Tallinn,airport
Pärnu Airport,Parnu,Estonia,EPU,EEPU,58.4189987182617,24.4727993011475,47,2,E,Europe/Tallinn,airport
Lennart Meri Tallinn Airport,Tallinn-ulemiste International,Estonia,TLL,EETN,59.4132995605,24.8327999115,131,2,E,Europe/Tallinn,airport
Tartu Airport,Tartu,Estonia,TAY,EETU,58.3074989319,26.6903991699,219,2,E,Europe/Tallinn,airport
Enontekio Airport,Enontekio,Finland,ENF,EFET,68.362602233887,23.424299240112,1005,2,E,Europe/Helsinki,airport
Eura Airport,Eura,Finland,\N,EFEU,61.1161003112793,22.2014007568359,259,2,E,Europe/Helsinki,airport
Halli Airport,Halli,Finland,KEV,EFHA,61.856039,24.786686,479,2,E,Europe/Helsinki,airport
Helsinki Malmi Airport,Helsinki,Finland,HEM,EFHF,60.2546005249023,25.0428009033203,57,2,E,Europe/Helsinki,airport
Helsinki Vantaa Airport,Helsinki,Finland,HEL,EFHK,60.317199707031,24.963300704956,179,2,E,Europe/Helsinki,airport
Hameenkyro Airport,Hameenkyro,Finland,\N,EFHM,61.6897010803223,23.0736999511719,449,2,E,Europe/Helsinki,airport
Hanko Airport,Hanko,Finland,\N,EFHN,59.8488998413086,23.0835990905762,20,2,E,Europe/Helsinki,airport
Hyvinkää Airfield,Hyvinkaa,Finland,HYV,EFHV,60.6543998718,24.8810997009,430,2,E,Europe/Helsinki,airport
Kiikala Airport,Kikala,Finland,\N,EFIK,60.4625015259,23.6525001526,381,2,E,Europe/Helsinki,airport
Immola Airport,Immola,Finland,\N,EFIM,61.2491989135742,28.9036998748779,338,2,E,Europe/Helsinki,airport
Kitee Airport,Kitee,Finland,\N,EFIT,62.1661,30.073601,364,2,E,Europe/Helsinki,airport
Ivalo Airport,Ivalo,Finland,IVL,EFIV,68.607299804688,27.405300140381,481,2,E,Europe/Helsinki,airport
Joensuu Airport,Joensuu,Finland,JOE,EFJO,62.662899017334,29.607500076294,398,2,E,Europe/Helsinki,airport
Jyvaskyla Airport,Jyvaskyla,Finland,JYV,EFJY,62.399501800537,25.678300857544,459,2,E,Europe/Helsinki,airport
Kauhava Airport,Kauhava,Finland,KAU,EFKA,63.127102,23.051399,151,2,E,Europe/Helsinki,airport
Kemi-Tornio Airport,Kemi,Finland,KEM,EFKE,65.778701782227,24.582099914551,61,2,E,Europe/Helsinki,airport
Kajaani Airport,Kajaani,Finland,KAJ,EFKI,64.285499572754,27.692399978638,483,2,E,Europe/Helsinki,airport
Kauhajoki Airport,Kauhajoki,Finland,\N,EFKJ,62.4625015259,22.3931007385,407,2,E,Europe/Helsinki,airport
Kokkola-Pietarsaari Airport,Kruunupyy,Finland,KOK,EFKK,63.721199035645,23.143100738525,84,2,E,Europe/Helsinki,airport
Kemijarvi Airport,Kemijarvi,Finland,\N,EFKM,66.712898,27.156799,692,2,E,Europe/Helsinki,airport
Kuusamo Airport,Kuusamo,Finland,KAO,EFKS,65.987602233887,29.239400863647,866,2,E,Europe/Helsinki,airport
Kittilä Airport,Kittila,Finland,KTT,EFKT,67.700996398926,24.846799850464,644,2,E,Europe/Helsinki,airport
Kuopio Airport,Kuopio,Finland,KUO,EFKU,63.007099151611,27.797800064087,323,2,E,Europe/Helsinki,airport
Lahti Vesivehmaa Airport,Vesivehmaa,Finland,\N,EFLA,61.144199,25.693501,502,2,E,Europe/Helsinki,airport
Lappeenranta Airport,Lappeenranta,Finland,LPP,EFLP,61.044601,28.144743,349,2,E,Europe/Helsinki,airport
Mariehamn Airport,Mariehamn,Finland,MHQ,EFMA,60.122200012207,19.898199081421,17,2,E,Europe/Mariehamn,airport
Menkijarvi Airport,Menkijarvi,Finland,\N,EFME,62.9467010498047,23.5188999176025,331,2,E,Europe/Helsinki,airport
Mikkeli Airport,Mikkeli,Finland,MIK,EFMI,61.6866,27.201799,329,2,E,Europe/Helsinki,airport
Nummela Airport,Nummela,Finland,\N,EFNU,60.3339004517,24.2964000702,367,2,E,Europe/Helsinki,airport
Oulu Airport,Oulu,Finland,OUL,EFOU,64.930099487305,25.354600906372,47,2,E,Europe/Helsinki,airport
Piikajarvi Airport,Piikajarvi,Finland,\N,EFPI,61.2456016540527,22.1933994293213,148,2,E,Europe/Helsinki,airport
Pori Airport,Pori,Finland,POR,EFPO,61.461700439453,21.799999237061,44,2,E,Europe/Helsinki,airport
Pudasjärvi Airport,Pudasjarvi,Finland,\N,EFPU,65.4021987915,26.9468994141,397,2,E,Europe/Helsinki,airport
Pyhäsalmi Airport,Pyhasalmi,Finland,\N,EFPY,63.7318992615,25.9263000488,528,2,E,Europe/Helsinki,airport
Raahe Pattijoki Airport,Pattijoki,Finland,\N,EFRH,64.6881027222,24.6958007812,118,2,E,Europe/Helsinki,airport
Rantasalmi Airport,Rantasalmi,Finland,\N,EFRN,62.0654983521,28.3565006256,292,2,E,Europe/Helsinki,airport
Rovaniemi Airport,Rovaniemi,Finland,RVN,EFRO,66.564796447754,25.830400466919,642,2,E,Europe/Helsinki,airport
Rayskala Airport,Rayskala,Finland,\N,EFRY,60.744701385498,24.1077995300293,407,2,E,Europe/Helsinki,airport
Savonlinna Airport,Savonlinna,Finland,SVL,EFSA,61.943099975586,28.945100784302,311,2,E,Europe/Helsinki,airport
Selanpaa Airport,Selanpaa,Finland,\N,EFSE,61.0624008178711,26.798900604248,417,2,E,Europe/Helsinki,airport
Sodankyla Airport,Sodankyla,Finland,SOT,EFSO,67.3949966431,26.6191005707,602,2,E,Europe/Helsinki,airport
Tampere-Pirkkala Airport,Tampere,Finland,TMP,EFTP,61.414100646973,23.604400634766,390,2,E,Europe/Helsinki,airport
Teisko Airport,Teisko,Finland,\N,EFTS,61.7733,24.027,515,2,E,Europe/Helsinki,airport
Turku Airport,Turku,Finland,TKU,EFTU,60.514099121094,22.262800216675,161,2,E,Europe/Helsinki,airport
Utti Air Base,Utti,Finland,QVY,EFUT,60.89640045166,26.938400268555,339,2,E,Europe/Helsinki,airport
Vaasa Airport,Vaasa,Finland,VAA,EFVA,63.050701141357,21.762199401855,19,2,E,Europe/Helsinki,airport
Varkaus Airport,Varkaus,Finland,VRK,EFVR,62.171100616455,27.868600845337,286,2,E,Europe/Helsinki,airport
Ylivieska Airfield,Ylivieska-raudaskyla,Finland,\N,EFYL,64.0547222,24.7252778,252,2,E,Europe/Helsinki,airport
Belfast International Airport,Belfast,United Kingdom,BFS,EGAA,54.6575012207,-6.21582984924,268,0,E,Europe/London,airport
St Angelo Airport,Enniskillen,United Kingdom,ENK,EGAB,54.3988990783691,-7.65166997909546,155,0,E,Europe/London,airport
George Best Belfast City Airport,Belfast,United Kingdom,BHD,EGAC,54.6180992126465,-5.87249994277954,15,0,E,Europe/London,airport
City of Derry Airport,Londonderry,United Kingdom,LDY,EGAE,55.0428009033203,-7.16110992431641,22,0,E,Europe/London,airport
Birmingham International Airport,Birmingham,United Kingdom,BHX,EGBB,52.4538993835,-1.74802994728,327,0,E,Europe/London,airport
Coventry Airport,Coventry,United Kingdom,CVT,EGBE,52.3697013855,-1.47971999645,267,0,E,Europe/London,airport
Leicester Airport,Leicester,United Kingdom,\N,EGBG,52.6077995300293,-1.03193998336792,469,0,E,Europe/London,airport
Gloucestershire Airport,Golouchestershire,United Kingdom,GLO,EGBJ,51.8941993713379,-2.16722011566162,101,0,E,Europe/London,airport
Wolverhampton Halfpenny Green Airport,Halfpenny Green,United Kingdom,\N,EGBO,52.5175018310547,-2.25943994522095,283,0,E,Europe/London,airport
Cotswold Airport,Pailton,United Kingdom,\N,EGBP,51.668095,-2.05694,433,0,E,Europe/London,airport
Turweston Airport,Turweston,United Kingdom,\N,EGBT,52.0407981873,-1.09555995464,448,0,E,Europe/London,airport
Wellesbourne Mountford Airport,Wellesbourne,United Kingdom,\N,EGBW,52.1921997070313,-1.61443996429443,159,0,E,Europe/London,airport
Manchester Airport,Manchester,United Kingdom,MAN,EGCC,53.3536987304688,-2.27495002746582,257,0,E,Europe/London,airport
Manchester Woodford Airport,Woodfort,United Kingdom,\N,EGCD,53.3381,-2.14889,295,0,E,Europe/London,airport
Royal Marines Base Chivenor Airport,Chivenor,United Kingdom,\N,EGDC,51.0872001647949,-4.15034008026123,27,0,E,Europe/London,airport
Newquay Cornwall Airport,Newquai,United Kingdom,NQY,EGHQ,50.440601348877,-4.99540996551514,390,0,E,Europe/London,airport
RAF Lyneham,Lyneham,United Kingdom,LYE,EGDL,51.5051,-1.99343,513,0,E,Europe/London,airport
MoD Boscombe Down Airport,Boscombe Down,United Kingdom,\N,EGDM,51.1521987915039,-1.74741005897522,407,0,E,Europe/London,airport
RNAS Culdrose,Culdrose,United Kingdom,\N,EGDR,50.0861015319824,-5.25571012496948,267,0,E,Europe/London,airport
MOD St. Athan,St. Athan,United Kingdom,\N,EGDX,51.4048004150391,-3.43575000762939,163,0,E,Europe/London,airport
RNAS Yeovilton,Yeovilton,United Kingdom,YEO,EGDY,51.0093994140625,-2.63881993293762,75,0,E,Europe/London,airport
Haverfordwest Airport,Haverfordwest,United Kingdom,\N,EGFE,51.8330993652344,-4.96111011505127,159,0,E,Europe/London,airport
Cardiff International Airport,Cardiff,United Kingdom,CWL,EGFF,51.3967018127441,-3.34332990646362,220,0,E,Europe/London,airport
Swansea Airport,Swansea,United Kingdom,SWS,EGFH,51.6053009033203,-4.06783008575439,299,0,E,Europe/London,airport
Bristol Airport,Bristol,United Kingdom,BRS,EGGD,51.382702,-2.71909,622,0,E,Europe/London,airport
Liverpool John Lennon Airport,Liverpool,United Kingdom,LPL,EGGP,53.3335990905762,-2.8497200012207,80,0,E,Europe/London,airport
London Luton Airport,London,United Kingdom,LTN,EGGW,51.874698638916,-0.368333011865616,526,0,E,Europe/London,airport
Plymouth City Airport,Plymouth,United Kingdom,PLH,EGHD,50.422798,-4.10583,476,0,E,Europe/London,airport
Bournemouth Airport,Bournemouth,United Kingdom,BOH,EGHH,50.7799987792969,-1.84249997138977,38,0,E,Europe/London,airport
Southampton Airport,Southampton,United Kingdom,SOU,EGHI,50.9502983093262,-1.35679996013641,44,0,E,Europe/London,airport
Lasham Airport,Lasham,United Kingdom,QLA,EGHL,51.187198638916,-1.03349995613098,618,0,E,Europe/London,airport
Alderney Airport,Alderney,Guernsey,ACI,EGJA,49.7061004638672,-2.21472001075745,290,0,E,Europe/Guernsey,airport
Guernsey Airport,Guernsey,Guernsey,GCI,EGJB,49.435001373291,-2.60196995735168,336,0,E,Europe/Guernsey,airport
Jersey Airport,Jersey,Jersey,JER,EGJJ,49.2079010009766,-2.1955099105835,277,0,E,Europe/Jersey,airport
Shoreham Airport,Shoreham By Sea,United Kingdom,ESH,EGKA,50.8356018066406,-0.29722198843956,7,0,E,Europe/London,airport
London Biggin Hill Airport,Biggin Hill,United Kingdom,BQH,EGKB,51.3307991028,0.0324999988079,598,0,E,Europe/London,airport
London Gatwick Airport,London,United Kingdom,LGW,EGKK,51.1481018066406,-0.190277993679047,202,0,E,Europe/London,airport
London City Airport,London,United Kingdom,LCY,EGLC,51.505299,0.055278,19,0,E,Europe/London,airport
Farnborough Airport,Farnborough,United Kingdom,FAB,EGLF,51.2757987976,-0.776332974434,238,0,E,Europe/London,airport
Chalgrove Airport,Chalsgrove,United Kingdom,\N,EGLJ,51.6761016845703,-1.0808299779892,240,0,E,Europe/London,airport
Blackbushe Airport,Blackbushe,United Kingdom,BBS,EGLK,51.3238983154297,-0.847500026226044,325,0,E,Europe/London,airport
London Heathrow Airport,London,United Kingdom,LHR,EGLL,51.4706,-0.461941,83,0,E,Europe/London,airport
Southend Airport,Southend,United Kingdom,SEN,EGMC,51.5713996887207,0.695555984973908,49,0,E,Europe/London,airport
Lydd Airport,Lydd,United Kingdom,LYX,EGMD,50.9561004638672,0.939167022705078,13,0,E,Europe/London,airport
Kent International Airport,Manston,United Kingdom,MSE,EGMH,51.342201,1.34611,178,0,E,Europe/London,airport
Brough Airport,Brough,United Kingdom,\N,EGNB,53.7197,-0.566333,12,0,E,Europe/London,airport
Carlisle Airport,Carlisle,United Kingdom,CAX,EGNC,54.9375,-2.80917000770569,190,0,E,Europe/London,airport
Retford Gamston Airport,Repton,United Kingdom,\N,EGNE,53.2806015014648,-0.951389014720917,91,0,E,Europe/London,airport
Blackpool International Airport,Blackpool,United Kingdom,BLK,EGNH,53.7717018127441,-3.02860999107361,34,0,E,Europe/London,airport
Humberside Airport,Humberside,United Kingdom,HUY,EGNJ,53.5744018554688,-0.350832998752594,121,0,E,Europe/London,airport
Barrow Walney Island Airport,Barrow Island,United Kingdom,BWF,EGNL,54.1286111,-3.2675,173,0,E,Europe/London,airport
Leeds Bradford Airport,Leeds,United Kingdom,LBA,EGNM,53.8658981323242,-1.66057002544403,681,0,E,Europe/London,airport
Warton Airport,Warton,United Kingdom,\N,EGNO,53.7450981140137,-2.88305997848511,55,0,E,Europe/London,airport
Hawarden Airport,Hawarden,United Kingdom,CEG,EGNR,53.1781005859375,-2.97778010368347,45,0,E,Europe/London,airport
Isle of Man Airport,Isle Of Man,Isle of Man,IOM,EGNS,54.0833015441895,-4.6238899230957,52,0,E,Europe/Isle_of_Man,airport
Newcastle Airport,Newcastle,United Kingdom,NCL,EGNT,55.0374984741211,-1.69166994094849,266,0,E,Europe/London,airport
Durham Tees Valley Airport,Teesside,United Kingdom,MME,EGNV,54.5092010498047,-1.42940998077393,120,0,E,Europe/London,airport
East Midlands Airport,East Midlands,United Kingdom,EMA,EGNX,52.8311004639,-1.32806003094,306,0,E,Europe/London,airport
Llanbedr Airport,Llanbedr,United Kingdom,\N,EGOD,52.811698913574,-4.1235799789429,30,0,E,Europe/London,airport
RAF Ternhill,Ternhill,United Kingdom,\N,EGOE,52.8712005615234,-2.53356003761291,272,0,E,Europe/London,airport
RAF Shawbury,Shawbury,United Kingdom,\N,EGOS,52.7981986999512,-2.66804003715515,249,0,E,Europe/London,airport
RAF Woodvale,Woodvale,United Kingdom,\N,EGOW,53.5816001892,-3.05552005768,37,0,E,Europe/London,airport
Kirkwall Airport,Kirkwall,United Kingdom,KOI,EGPA,58.9578018188477,-2.90499997138977,50,0,E,Europe/London,airport
Sumburgh Airport,Sumburgh,United Kingdom,LSI,EGPB,59.8788986206055,-1.29556000232697,20,0,E,Europe/London,airport
Wick Airport,Wick,United Kingdom,WIC,EGPC,58.4589004516602,-3.09306001663208,126,0,E,Europe/London,airport
Aberdeen Dyce Airport,Aberdeen,United Kingdom,ABZ,EGPD,57.2019004821777,-2.19777989387512,215,0,E,Europe/London,airport
Inverness Airport,Inverness,United Kingdom,INV,EGPE,57.5424995422363,-4.0475001335144,31,0,E,Europe/London,airport
Glasgow International Airport,Glasgow,United Kingdom,GLA,EGPF,55.8718986511,-4.43306016922,26,0,E,Europe/London,airport
Edinburgh Airport,Edinburgh,United Kingdom,EDI,EGPH,55.9500007629395,-3.37249994277954,135,0,E,Europe/London,airport
Islay Airport,Islay,United Kingdom,ILY,EGPI,55.6819000244141,-6.25666999816895,56,0,E,Europe/London,airport
Glasgow Prestwick Airport,Prestwick,United Kingdom,PIK,EGPK,55.5093994140625,-4.586669921875,65,0,E,Europe/London,airport
Benbecula Airport,Benbecula,United Kingdom,BEB,EGPL,57.4810981750488,-7.36278009414673,19,0,E,Europe/London,airport
Scatsta Airport,Scatsta,United Kingdom,SCS,EGPM,60.4328002929688,-1.29611003398895,81,0,E,Europe/London,airport
Dundee Airport,Dundee,United Kingdom,DND,EGPN,56.4524993896484,-3.02583003044128,17,0,E,Europe/London,airport
Stornoway Airport,Stornoway,United Kingdom,SYY,EGPO,58.2155990600586,-6.33111000061035,26,0,E,Europe/London,airport
Tiree Airport,Tiree,United Kingdom,TRE,EGPU,56.4991989135742,-6.86917018890381,38,0,E,Europe/London,airport
RAF Leuchars,Leuchars,United Kingdom,ADX,EGQL,56.3728981018066,-2.86843991279602,38,0,E,Europe/London,airport
RAF Lossiemouth,Lossiemouth,United Kingdom,LMO,EGQS,57.7052001953125,-3.33916997909546,42,0,E,Europe/London,airport
Cambridge Airport,Cambridge,United Kingdom,CBG,EGSC,52.2050018311,0.17499999702,47,0,E,Europe/London,airport
Peterborough Business Airport,Peterborough,United Kingdom,\N,EGSF,52.4681015014648,-0.251111000776291,26,0,E,Europe/London,airport
Norwich International Airport,Norwich,United Kingdom,NWI,EGSH,52.6758003235,1.28278005123,117,0,E,Europe/London,airport
London Stansted Airport,London,United Kingdom,STN,EGSS,51.8849983215,0.234999999404,348,0,E,Europe/London,airport
North Weald Airport,North Weald,United Kingdom,\N,EGSX,51.721698761,0.154166996479,321,0,E,Europe/London,airport
Sheffield City Heliport,Fowlmere,United Kingdom,\N,EGSY,53.394299,-1.38849,231,0,E,Europe/London,airport
Cranfield Airport,Cranfield,United Kingdom,\N,EGTC,52.0722007751,-0.616666972637,358,0,E,Europe/London,airport
Exeter International Airport,Exeter,United Kingdom,EXT,EGTE,50.7344017028809,-3.41388988494873,102,0,E,Europe/London,airport
Bristol Filton Airport,Bristol,United Kingdom,FZO,EGTG,51.5194015503,-2.59083008766,226,0,E,Europe/London,airport
Oxford (Kidlington) Airport,Oxford,United Kingdom,OXF,EGTK,51.8368988037,-1.32000005245,270,0,E,Europe/London,airport
RAF Benson,Benson,United Kingdom,\N,EGUB,51.6164016724,-1.09582996368,226,0,E,Europe/London,airport
RAF Lakenheath,Lakenheath,United Kingdom,\N,EGUL,52.4093017578,0.56099998951,32,0,E,Europe/London,airport
RAF Mildenhall,Mildenhall,United Kingdom,MHZ,EGUN,52.3619003295898,0.486405998468399,33,0,E,Europe/London,airport
RAF Wattisham,Wattisham,United Kingdom,\N,EGUW,52.1273002625,0.956264019012,284,0,E,Europe/London,airport
RAF Wyton,Wyton,United Kingdom,\N,EGUY,52.3572006226,-0.107832998037,135,0,E,Europe/London,airport
RAF Fairford,Fairford,United Kingdom,FFD,EGVA,51.6822013855,-1.79003000259,286,0,E,Europe/London,airport
RAF Brize Norton,Brize Norton,United Kingdom,BZZ,EGVN,51.75,-1.58362,288,0,E,Europe/London,airport
RAF Odiham,Odiham,United Kingdom,ODH,EGVO,51.2341003418,-0.94282501936,405,0,E,Europe/London,airport
DCAE Cosford Air Base,Cosford,United Kingdom,\N,EGWC,52.639999,-2.30558,272,0,E,Europe/London,airport
RAF Northolt,Northolt,United Kingdom,NHT,EGWU,51.5530014038,-0.418166995049,124,0,E,Europe/London,airport
RAF Coningsby,Coningsby,United Kingdom,QCY,EGXC,53.0929985046,-0.166014000773,25,0,E,Europe/London,airport
RAF Dishforth,Dishforth,United Kingdom,\N,EGXD,54.1371994019,-1.42025005817,117,0,E,Europe/London,airport
Leeming Airport,Leeming,United Kingdom,\N,EGXE,54.2924,-1.5354,132,0,E,Europe/London,airport
Leeds East Airport,Church Fenton,United Kingdom,\N,EGXG,53.834301,-1.1955,29,0,E,Europe/London,airport
RAF Honington,Honington,United Kingdom,BEQ,EGXH,52.342601776123,0.772939026355743,174,0,E,Europe/London,airport
RAF Cottesmore,Cottesmore,United Kingdom,\N,EGXJ,52.735699,-0.648769,461,0,E,Europe/London,airport
RAF Scampton,Scampton,United Kingdom,\N,EGXP,53.307800293,-0.550832986832,202,0,E,Europe/London,airport
RAF Wittering,Wittering,United Kingdom,\N,EGXT,52.6125984192,-0.476453006268,273,0,E,Europe/London,airport
RAF Linton-On-Ouse,Linton-on-ouse,United Kingdom,HRT,EGXU,54.0489006042,-1.2527500391,53,0,E,Europe/London,airport
RAF Waddington,Waddington,United Kingdom,WTN,EGXW,53.1661987305,-0.523810982704,231,0,E,Europe/London,airport
RAF Topcliffe,Topcliffe,United Kingdom,\N,EGXZ,54.2055015564,-1.3820899725,92,0,E,Europe/London,airport
RAF Cranwell,Cranwell,United Kingdom,\N,EGYD,53.0303001404,-0.48324200511,218,0,E,Europe/London,airport
RAF Barkston Heath,Barkston Heath,United Kingdom,\N,EGYE,52.9622001648,-0.561625003815,367,0,E,Europe/London,airport
RAF Marham,Marham,United Kingdom,KNF,EGYM,52.648395,0.550692,75,0,E,Europe/London,airport
Mount Pleasant Airport,Mount Pleasant,Falkland Islands,MPN,EGYP,-51.8227996826172,-58.4472007751465,244,-3,U,Atlantic/Stanley,airport
Amsterdam Airport Schiphol,Amsterdam,Netherlands,AMS,EHAM,52.3086013794,4.76388978958,-11,1,E,Europe/Amsterdam,airport
Budel Airport,Weert,Netherlands,\N,EHBD,51.2552986145,5.60138988495,114,1,E,Europe/Amsterdam,airport
Maastricht Aachen Airport,Maastricht,Netherlands,MST,EHBK,50.9117012024,5.77014017105,375,1,E,Europe/Amsterdam,airport
Deelen Air Base,Deelen,Netherlands,\N,EHDL,52.0606,5.87306,158,1,E,Europe/Amsterdam,airport
Drachten Airport,Drachten,Netherlands,\N,EHDR,53.1192016602,6.12972021103,14,1,E,Europe/Amsterdam,airport
Eindhoven Airport,Eindhoven,Netherlands,EIN,EHEH,51.4500999451,5.37452983856,74,1,E,Europe/Amsterdam,airport
Eelde Airport,Groningen,Netherlands,GRQ,EHGG,53.1197013855,6.57944011688,17,1,E,Europe/Amsterdam,airport
Gilze Rijen Air Base,Gilze-rijen,Netherlands,\N,EHGR,51.5674018859863,4.93182992935181,49,1,E,Europe/Amsterdam,airport
De Kooy Airport,De Kooy,Netherlands,DHR,EHKD,52.9234008789063,4.78062009811401,3,1,E,Europe/Amsterdam,airport
Lelystad Airport,Lelystad,Netherlands,LEY,EHLE,52.4603004455566,5.52721977233887,-13,1,E,Europe/Amsterdam,airport
Leeuwarden Air Base,Leeuwarden,Netherlands,LWR,EHLW,53.2285995483398,5.76056003570557,3,1,E,Europe/Amsterdam,airport
Rotterdam The Hague Airport,Rotterdam,Netherlands,RTM,EHRD,51.956902,4.43722,-15,1,E,Europe/Amsterdam,airport
Soesterberg Air Base,Soesterberg,Netherlands,UTC,EHSB,52.1273002625,5.27618980408,66,1,E,Europe/Amsterdam,airport
Twente Airfield,Enschede,Netherlands,ENS,EHTW,52.2758333,6.8891667,114,1,E,Europe/Amsterdam,airport
Valkenburg Naval Air Base,Valkenburg,Netherlands,LID,EHVB,52.1660995483,4.41794013977,1,1,E,Europe/Amsterdam,airport
Woensdrecht Air Base,Woensdrecht,Netherlands,WOE,EHWO,51.4491,4.34203,63,1,E,Europe/Amsterdam,airport
Cork Airport,Cork,Ireland,ORK,EICK,51.8413009643555,-8.49110984802246,502,0,E,Europe/Dublin,airport
Galway Airport,Galway,Ireland,GWY,EICM,53.3002014160156,-8.94159030914307,81,0,E,Europe/Dublin,airport
Dublin Airport,Dublin,Ireland,DUB,EIDW,53.4212989807129,-6.27007007598877,242,0,E,Europe/Dublin,airport
Ireland West Knock Airport,Connaught,Ireland,NOC,EIKN,53.9103012084961,-8.81849002838135,665,0,E,Europe/Dublin,airport
Kerry Airport,Kerry,Ireland,KIR,EIKY,52.1809005737305,-9.52377986907959,112,0,E,Europe/Dublin,airport
Casement Air Base,Casement,Ireland,\N,EIME,53.301700592,-6.45133018494,319,0,E,Europe/Dublin,airport
Shannon Airport,Shannon,Ireland,SNN,EINN,52.701999664307,-8.9248199462891,46,0,E,Europe/Dublin,airport
Sligo Airport,Sligo,Ireland,SXL,EISG,54.280200958252,-8.5992097854614,11,0,E,Europe/Dublin,airport
Waterford Airport,Waterford,Ireland,WAT,EIWF,52.187198638916,-7.08695983886719,119,0,E,Europe/Dublin,airport
Aarhus Airport,Aarhus,Denmark,AAR,EKAH,56.2999992371,10.6190004349,82,1,E,Europe/Copenhagen,airport
Billund Airport,Billund,Denmark,BLL,EKBI,55.7402992249,9.15178012848,247,1,E,Europe/Copenhagen,airport
Copenhagen Kastrup Airport,Copenhagen,Denmark,CPH,EKCH,55.617900848389,12.656000137329,17,1,E,Europe/Copenhagen,airport
Esbjerg Airport,Esbjerg,Denmark,EBJ,EKEB,55.5259017944336,8.55340003967285,97,1,E,Europe/Copenhagen,airport
Grønholt Hillerød Airport,Gronholt,Denmark,\N,EKGH,55.9413986206055,12.3822002410889,97,1,E,Europe/Copenhagen,airport
Karup Airport,Karup,Denmark,KRP,EKKA,56.2975006103516,9.12462997436523,170,1,E,Europe/Copenhagen,airport
Læsø Airport,Laeso,Denmark,\N,EKLS,57.2771987915039,11.0001001358032,25,1,E,Europe/Copenhagen,airport
Lolland Falster Maribo Airport,Maribo,Denmark,\N,EKMB,54.699299,11.4401,16,1,E,Europe/Copenhagen,airport
Odense Airport,Odense,Denmark,ODE,EKOD,55.4766998291016,10.3309001922607,56,1,E,Europe/Copenhagen,airport
Kruså-Padborg Airport,Krusa-padborg,Denmark,\N,EKPB,54.8703002929688,9.27900981903076,88,1,E,Europe/Copenhagen,airport
Copenhagen Roskilde Airport,Copenhagen,Denmark,RKE,EKRK,55.5856018066406,12.1314001083374,146,1,E,Europe/Copenhagen,airport
Bornholm Airport,Ronne,Denmark,RNN,EKRN,55.0633010864258,14.7595996856689,52,1,E,Europe/Copenhagen,airport
Sønderborg Airport,Soenderborg,Denmark,SGD,EKSB,54.9644012451172,9.79172992706299,24,1,E,Europe/Copenhagen,airport
Skrydstrup Air Base,Skrydstrup,Denmark,SKS,EKSP,55.221048,9.26702,141,1,E,Europe/Copenhagen,airport
Skive Airport,Skive,Denmark,\N,EKSV,56.5502014160156,9.17298030853272,74,1,E,Europe/Copenhagen,airport
Thisted Airport,Thisted,Denmark,TED,EKTS,57.0688018798828,8.70522022247314,23,1,E,Europe/Copenhagen,airport
Kolding Vamdrup Airport,Kolding,Denmark,\N,EKVD,55.4362983704,9.33092021942,143,1,E,Europe/Copenhagen,airport
Vagar Airport,Vagar,Faroe Islands,FAE,EKVG,62.0635986328125,-7.27721977233887,280,0,E,Atlantic/Faeroe,airport
Vesthimmerlands Flyveplads,Vesthimmerland,Denmark,\N,EKVH,56.846901,9.45861,119,1,E,Europe/Copenhagen,airport
Stauning Airport,Stauning,Denmark,STA,EKVJ,55.9901008605957,8.35391044616699,17,1,E,Europe/Copenhagen,airport
Aalborg Airport,Aalborg,Denmark,AAL,EKYT,57.0927589138,9.84924316406,10,1,E,Europe/Copenhagen,airport
Luxembourg-Findel International Airport,Luxemburg,Luxembourg,LUX,ELLX,49.6233333,6.2044444,1234,1,E,Europe/Luxembourg,airport
Ålesund Airport,Alesund,Norway,AES,ENAL,62.5625,6.11969995498657,69,1,E,Europe/Oslo,airport
Andøya Airport,Andoya,Norway,ANX,ENAN,69.292503356934,16.144199371338,43,1,E,Europe/Oslo,airport
Alta Airport,Alta,Norway,ALF,ENAT,69.976097106934,23.371700286865,9,1,E,Europe/Oslo,airport
Bømoen Airport,Voss,Norway,\N,ENBM,60.6389007568359,6.50150012969971,300,1,E,Europe/Oslo,airport
Brønnøysund Airport,Bronnoysund,Norway,BNN,ENBN,65.461097717285,12.217499732971,25,1,E,Europe/Oslo,airport
Bodø Airport,Bodo,Norway,BOO,ENBO,67.2692031860352,14.3653001785278,42,1,E,Europe/Oslo,airport
Bergen Airport Flesland,Bergen,Norway,BGO,ENBR,60.29339981,5.218140125,170,1,E,Europe/Oslo,airport
Båtsfjord Airport,Batsfjord,Norway,BJF,ENBS,70.60050201416,29.691400527954,490,1,E,Europe/Oslo,airport
Kristiansand Airport,Kristiansand,Norway,KRS,ENCN,58.2042007446289,8.08537006378174,57,1,E,Europe/Oslo,airport
Geilo Airport Dagali,Geilo,Norway,\N,ENDI,60.4173011779785,8.51834964752197,2618,1,E,Europe/Oslo,airport
Bardufoss Airport,Bardufoss,Norway,BDU,ENDU,69.055801391602,18.540399551392,252,1,E,Europe/Oslo,airport
"Harstad/Narvik Airport, Evenes",Harstad/Narvik,Norway,EVE,ENEV,68.491302490234,16.678100585938,84,1,E,Europe/Oslo,airport
Leirin Airport,Fagernes,Norway,VDB,ENFG,61.015598297119,9.2880601882935,2697,1,E,Europe/Oslo,airport
Florø Airport,Floro,Norway,FRO,ENFL,61.583599090576,5.0247201919556,37,1,E,Europe/Oslo,airport
Oslo Gardermoen Airport,Oslo,Norway,OSL,ENGM,60.193901062012,11.100399971008,681,1,E,Europe/Oslo,airport
Haugesund Airport,Haugesund,Norway,HAU,ENHD,59.34529876709,5.2083601951599,86,1,E,Europe/Oslo,airport
Hasvik Airport,Hasvik,Norway,HAA,ENHK,70.486701965332,22.139699935913,21,1,E,Europe/Oslo,airport
Kristiansund Airport (Kvernberget),Kristiansund,Norway,KSU,ENKB,63.111801147461,7.824520111084,204,1,E,Europe/Oslo,airport
Kjeller Airport,Kjeller,Norway,\N,ENKJ,59.9692993164,11.0361003876,354,1,E,Europe/Oslo,airport
Kirkenes Airport (Høybuktmoen),Kirkenes,Norway,KKN,ENKR,69.725799560547,29.891300201416,283,1,E,Europe/Oslo,airport
Lista Airport,Farsund,Norway,FAN,ENLI,58.0994987487793,6.62604999542236,29,1,E,Europe/Oslo,airport
Molde Airport,Molde,Norway,MOL,ENML,62.744701385498,7.2624998092651,10,1,E,Europe/Oslo,airport
Mosjøen Airport (Kjærstad),Mosjoen,Norway,MJF,ENMS,65.783996582031,13.214900016785,237,1,E,Europe/Oslo,airport
Banak Airport,Lakselv,Norway,LKL,ENNA,70.068801879883,24.973499298096,25,1,E,Europe/Oslo,airport
Notodden Airport,Notodden,Norway,NTB,ENNO,59.565701,9.21222,63,1,E,Europe/Oslo,airport
Ørland Airport,Orland,Norway,OLA,ENOL,63.6988983154297,9.60400009155273,28,1,E,Europe/Oslo,airport
Røros Airport,Roros,Norway,RRS,ENRO,62.578399658203,11.342300415039,2054,1,E,Europe/Oslo,airport
Moss-Rygge Airport,Rygge,Norway,RYG,ENRY,59.378817,10.785439,174,1,E,Europe/Oslo,airport
"Svalbard Airport, Longyear",Svalbard,Norway,LYR,ENSB,78.246101379395,15.465600013733,88,1,E,Arctic/Longyearbyen,airport
Skien Airport,Skien,Norway,SKE,ENSN,59.185001373291,9.56694030761719,463,1,E,Europe/Oslo,airport
Stord Airport,Stord,Norway,SRP,ENSO,59.7919006347656,5.34084987640381,160,1,E,Europe/Oslo,airport
Sandnessjøen Airport (Stokka),Sandnessjoen,Norway,SSJ,ENST,65.956802368164,12.468899726868,56,1,E,Europe/Oslo,airport
Tromsø Airport,Tromso,Norway,TOS,ENTC,69.6832962036133,18.9188995361328,31,1,E,Europe/Oslo,airport
"Sandefjord Airport, Torp",Sandefjord,Norway,TRF,ENTO,59.1866989136,10.258600235,286,1,E,Europe/Oslo,airport
Trondheim Airport Værnes,Trondheim,Norway,TRD,ENVA,63.4578018,10.9239998,56,1,E,Europe/Oslo,airport
Stavanger Airport Sola,Stavanger,Norway,SVG,ENZV,58.876701354,5.6377801895,29,1,E,Europe/Oslo,airport
Babice Airport,Warsaw,Poland,\N,EPBC,52.2685012817383,20.9109992980957,352,1,E,Europe/Warsaw,airport
Gdańsk Lech Wałęsa Airport,Gdansk,Poland,GDN,EPGD,54.3776016235352,18.4661998748779,489,1,E,Europe/Warsaw,airport
John Paul II International Airport Kraków-Balice Airport,Krakow,Poland,KRK,EPKK,50.0777015686035,19.7847995758057,791,1,E,Europe/Warsaw,airport
Muchowiec Airport,Katowice,Poland,\N,EPKM,50.2380981445313,19.034200668335,909,1,E,Europe/Warsaw,airport
Katowice International Airport,Katowice,Poland,KTW,EPKT,50.4743,19.08,995,1,E,Europe/Warsaw,airport
Mielec Airport,Mielec,Poland,\N,EPML,50.3222999572754,21.4620990753174,548,1,E,Europe/Warsaw,airport
Poznań-Ławica Airport,Poznan,Poland,POZ,EPPO,52.4210014343,16.8262996674,308,1,E,Europe/Warsaw,airport
Rzeszów-Jasionka Airport,Rzeszow,Poland,RZE,EPRZ,50.1100006104,22.0189990997,675,1,E,Europe/Warsaw,airport
"Szczecin-Goleniów \""Solidarność\"" Airport",Szczecin,Poland,SZZ,EPSC,53.5847015381,14.9021997452,154,1,E,Europe/Warsaw,airport
Redzikowo Air Base,Slupsk,Poland,OSP,EPSK,54.4789009094238,17.1075000762939,217,1,E,Europe/Warsaw,airport
Swidwin Military Air Base,Shapaja,Poland,\N,EPSN,53.790599823,15.8262996674,385,1,E,Europe/Warsaw,airport
Warsaw Chopin Airport,Warsaw,Poland,WAW,EPWA,52.1656990051,20.9671001434,362,1,E,Europe/Warsaw,airport
Copernicus Wrocław Airport,Wroclaw,Poland,WRO,EPWR,51.1026992798,16.885799408,404,1,E,Europe/Warsaw,airport
Zielona Góra-Babimost Airport,Zielona Gora,Poland,IEG,EPZG,52.1385002136,15.7986001968,194,1,E,Europe/Warsaw,airport
Malmen Air Base,Linkoeping,Sweden,\N,ESCF,58.4023017883301,15.5256996154785,308,1,E,Europe/Stockholm,airport
Bråvalla Air Base,Norrkoeping,Sweden,\N,ESCK,58.6109008789063,16.1035995483398,90,1,E,Europe/Stockholm,airport
Uppsala Airport,Uppsala,Sweden,\N,ESCM,59.8973007202148,17.5886001586914,68,1,E,Europe/Stockholm,airport
Ronneby Airport,Ronneby,Sweden,RNB,ESDF,56.266700744629,15.265000343323,191,1,E,Europe/Stockholm,airport
Råda Air Base,Rada,Sweden,\N,ESFR,58.4981002807617,13.0531997680664,230,1,E,Europe/Stockholm,airport
Gothenburg-Landvetter Airport,Gothenborg,Sweden,GOT,ESGG,57.662799835205,12.279800415039,506,1,E,Europe/Stockholm,airport
Jönköping Airport,Joenkoeping,Sweden,JKG,ESGJ,57.7575988769531,14.068699836731,741,1,E,Europe/Stockholm,airport
Falköping Airport,Falkoping,Sweden,\N,ESGK,58.1697998046875,13.5878000259399,785,1,E,Europe/Stockholm,airport
Lidköping-Hovby Airport,Lidkoping,Sweden,LDK,ESGL,58.46549987793,13.17440032959,200,1,E,Europe/Stockholm,airport
Gothenburg City Airport,Gothenborg,Sweden,GSE,ESGP,57.7747001647949,11.870400428772,59,1,E,Europe/Stockholm,airport
Skövde Airport,Skovde,Sweden,KVB,ESGR,58.4564018249512,13.9727001190186,324,1,E,Europe/Stockholm,airport
Trollhättan-Vänersborg Airport,Trollhattan,Sweden,THN,ESGT,58.3180999755859,12.3450002670288,137,1,E,Europe/Stockholm,airport
Karlsborg Air Base,Karlsborg,Sweden,\N,ESIA,58.513801574707,14.5071001052856,308,1,E,Europe/Stockholm,airport
Såtenäs Air Base,Satenas,Sweden,\N,ESIB,58.426399230957,12.7144002914429,181,1,E,Europe/Stockholm,airport
Barkarby Airport,Stockholm,Sweden,\N,ESKB,59.4144743644,17.8821372986,50,1,E,Europe/Stockholm,airport
Karlskoga Airport,Karlskoga,Sweden,KSK,ESKK,59.3459014892578,14.4959001541138,400,1,E,Europe/Stockholm,airport
Mora Airport,Mora,Sweden,MXX,ESKM,60.9579010009766,14.5114002227783,634,1,E,Europe/Stockholm,airport
Stockholm Skavsta Airport,Stockholm,Sweden,NYO,ESKN,58.7886009216309,16.9122009277344,140,1,E,Europe/Stockholm,airport
Arvika Airport,Arvika,Sweden,\N,ESKV,59.6758995056152,12.6393995285034,237,1,E,Europe/Stockholm,airport
Emmaboda Airfield,Emmaboda,Sweden,\N,ESMA,56.610802,15.6048,442,1,E,Europe/Stockholm,airport
Feringe Airport,Ljungby,Sweden,\N,ESMG,56.9502983093,13.9216995239,538,1,E,Europe/Stockholm,airport
Kristianstad Airport,Kristianstad,Sweden,KID,ESMK,55.9216995239258,14.0854997634888,76,1,E,Europe/Stockholm,airport
Landskrona Airport,Landskrona,Sweden,JLD,ESML,55.9459991455078,12.8699998855591,194,1,E,Europe/Stockholm,airport
Oskarshamn Airport,Oskarshamn,Sweden,OSK,ESMO,57.350498199463,16.497999191284,96,1,E,Europe/Stockholm,airport
Anderstorp Airport,Anderstorp,Sweden,\N,ESMP,57.2641983032227,13.5993995666504,507,1,E,Europe/Stockholm,airport
Kalmar Airport,Kalkmar,Sweden,KLR,ESMQ,56.6855010986328,16.2875995635986,17,1,E,Europe/Stockholm,airport
Malmö Sturup Airport,Malmoe,Sweden,MMX,ESMS,55.536305364,13.3761978149,236,1,E,Europe/Stockholm,airport
Halmstad Airport,Halmstad,Sweden,HAD,ESMT,56.6911010742188,12.8201999664307,101,1,E,Europe/Stockholm,airport
Hagshult Airport,Hagshult,Sweden,\N,ESMV,57.2921981812,14.1372003555,556,1,E,Europe/Stockholm,airport
Växjö Kronoberg Airport,Vaxjo,Sweden,VXO,ESMX,56.9291000366211,14.7279996871948,610,1,E,Europe/Stockholm,airport
Hallviken Airport,Hallviken,Sweden,\N,ESNA,63.7383003234863,15.4582996368408,1119,1,E,Europe/Stockholm,airport
Hedlanda Airport,Hede,Sweden,\N,ESNC,62.4089012146,13.7472000122,1460,1,E,Europe/Stockholm,airport
Sveg Airport,Sveg,Sweden,EVG,ESND,62.0477981567383,14.4229001998901,1178,1,E,Europe/Stockholm,airport
Gällivare Airport,Gallivare,Sweden,GEV,ESNG,67.1324005126953,20.8145999908447,1027,1,E,Europe/Stockholm,airport
Hudiksvall Airport,Hudiksvall,Sweden,HUV,ESNH,61.7681007385,17.0806999207,95,1,E,Europe/Stockholm,airport
Jokkmokk Airport,Jokkmokk,Sweden,\N,ESNJ,66.4962005615234,20.1471996307373,904,1,E,Europe/Stockholm,airport
Kramfors Sollefteå Airport,Kramfors,Sweden,KRF,ESNK,63.0485992431641,17.7688999176025,34,1,E,Europe/Stockholm,airport
Lycksele Airport,Lycksele,Sweden,LYC,ESNL,64.5483016967773,18.7161998748779,705,1,E,Europe/Stockholm,airport
Optand Airport,Optand,Sweden,\N,ESNM,63.1286010742187,14.8028001785278,1236,1,E,Europe/Stockholm,airport
Sundsvall-Härnösand Airport,Sundsvall,Sweden,SDL,ESNN,62.5280990600586,17.4438991546631,16,1,E,Europe/Stockholm,airport
Örnsköldsvik Airport,Ornskoldsvik,Sweden,OER,ESNO,63.4082984924316,18.9899997711182,354,1,E,Europe/Stockholm,airport
Piteå Airport,Pitea,Sweden,\N,ESNP,65.3983001708984,21.260799407959,43,1,E,Europe/Stockholm,airport
Kiruna Airport,Kiruna,Sweden,KRN,ESNQ,67.821998596191,20.336799621582,1508,1,E,Europe/Stockholm,airport
Orsa Airport,Orsa,Sweden,\N,ESNR,61.189998626709,14.7125997543335,683,1,E,Europe/Stockholm,airport
Skellefteå Airport,Skelleftea,Sweden,SFT,ESNS,64.6248016357422,21.0769004821777,157,1,E,Europe/Stockholm,airport
Sättna Airport,Sattna,Sweden,\N,ESNT,62.4814,17.002899,886,1,E,Europe/Stockholm,airport
Umeå Airport,Umea,Sweden,UME,ESNU,63.791801452637,20.282800674438,24,1,E,Europe/Stockholm,airport
Vilhelmina Airport,Vilhelmina,Sweden,VHM,ESNV,64.5791015625,16.8335990905762,1140,1,E,Europe/Stockholm,airport
Arvidsjaur Airport,Arvidsjaur,Sweden,AJR,ESNX,65.5903015136719,19.2819004058838,1245,1,E,Europe/Stockholm,airport
Örebro Airport,Orebro,Sweden,ORB,ESOE,59.2237014770508,15.0380001068115,188,1,E,Europe/Stockholm,airport
Stockholm Västerås Airport,Vasteras,Sweden,VST,ESOW,59.5894012451172,16.6336002349854,21,1,E,Europe/Stockholm,airport
Luleå Airport,Lulea,Sweden,LLA,ESPA,65.543800354004,22.121999740601,65,1,E,Europe/Stockholm,airport
Vidsel Air Base,Vidsel,Sweden,\N,ESPE,65.8752975463867,20.1499004364014,597,1,E,Europe/Stockholm,airport
Arboga Airport,Arboga,Sweden,\N,ESQO,59.3866004943848,15.9240999221802,33,1,E,Europe/Stockholm,airport
Stockholm-Arlanda Airport,Stockholm,Sweden,ARN,ESSA,59.651901245117,17.918600082397,137,1,E,Europe/Stockholm,airport
Stockholm-Bromma Airport,Stockholm,Sweden,BMA,ESSB,59.3544006347656,17.9416999816895,47,1,E,Europe/Stockholm,airport
Borlange Airport,Borlange,Sweden,BLE,ESSD,60.4220008850098,15.5151996612549,503,1,E,Europe/Stockholm,airport
Hultsfred Airport,Hultsfred,Sweden,HLF,ESSF,57.525798797607,15.823300361633,366,1,E,Europe/Stockholm,airport
Gävle Sandviken Airport,Gavle,Sweden,GVX,ESSK,60.5932998657227,16.9514007568359,224,1,E,Europe/Stockholm,airport
Linköping City Airport,Linkoeping,Sweden,LPI,ESSL,58.4062004089,15.6805000305,172,1,E,Europe/Stockholm,airport
Norrköping Airport,Norrkoeping,Sweden,NRK,ESSP,58.5862998962402,16.2506008148193,32,1,E,Europe/Stockholm,airport
Eskilstuna Airport,Eskilstuna,Sweden,\N,ESSU,59.3511009216309,16.7084007263184,139,1,E,Europe/Stockholm,airport
Visby Airport,Visby,Sweden,VBY,ESSV,57.662799835205,18.346200942993,164,1,E,Europe/Stockholm,airport
Kalixfors Airport,Kalixfors,Sweden,\N,ESUK,67.7648010253906,20.2572002410889,1549,1,E,Europe/Stockholm,airport
Spangdahlem Air Base,Spangdahlem,Germany,SPM,ETAD,49.9726982117,6.69250011444,1197,1,E,Europe/Berlin,airport
Ramstein Air Base,Ramstein,Germany,RMS,ETAR,49.4369010925293,7.60027980804443,776,1,E,Europe/Berlin,airport
[Duplicate] Giebelstadt Army Air Field,Giebelstadt,Germany,GHF,ETEU,49.6481018066,9.96648979187,980,1,E,Europe/Berlin,airport
Bückeburg Air Base,Brueckeburg,Germany,\N,ETHB,52.2785,9.08217,230,1,E,Europe/Berlin,airport
Celle Airport,Celle,Germany,ZCN,ETHC,52.5912017822266,10.0221004486084,129,1,E,Europe/Berlin,airport
Rheine Bentlage Air Base,Rheine-brentlange,Germany,\N,ETHE,52.291199,7.387,129,1,E,Europe/Berlin,airport
Fritzlar Airport,Fritzlar,Germany,\N,ETHF,51.1146,9.286,1345,1,E,Europe/Berlin,airport
Laupheim Air Base,Laupheim,Germany,\N,ETHL,48.220299,9.91002,1766,1,E,Europe/Berlin,airport
Mendig Airport,Mendig,Germany,\N,ETHM,50.3660011292,7.31533002853,597,1,E,Europe/Berlin,airport
Niederstetten Army Air Base,Niederstetten,Germany,\N,ETHN,49.391945,9.958889,1339,1,E,Europe/Berlin,airport
Roth Airport,Roth,Germany,\N,ETHR,49.2174987792969,11.1001996994019,1268,1,E,Europe/Berlin,airport
Fassberg Air Base,Fassberg,Germany,\N,ETHS,52.919399,10.185827,245,1,E,Europe/Berlin,airport
Grafenwohr Army Air Field,Grafenwoehr,Germany,\N,ETIC,49.6986999511719,11.9401998519897,1363,1,E,Europe/Berlin,airport
Hanau Army Air Field,Hanau,Germany,ZNF,ETID,50.169201,8.96159,368,1,E,Europe/Berlin,airport
Hohenfels Army Air Field,Hohenfels,Germany,\N,ETIH,49.2181015014648,11.8360996246338,1455,1,E,Europe/Berlin,airport
Kitzingen Army Air Field,Kitzingen,Germany,\N,ETIN,49.7430992126465,10.2005996704102,689,1,E,Europe/Berlin,airport
Nordholz Naval Airbase,Nordholz,Germany,\N,ETMN,53.7677001953,8.65849971771,74,1,E,Europe/Berlin,airport
Diepholz Air Base,Diepholz,Germany,\N,ETND,52.585556,8.342222,128,1,E,Europe/Berlin,airport
Geilenkirchen Air Base,Geilenkirchen,Germany,GKE,ETNG,50.9608,6.04242,296,1,E,Europe/Berlin,airport
Hohn Airport,Hohn,Germany,\N,ETNH,54.312198638916,9.53816986083984,39,1,E,Europe/Berlin,airport
Jever Air Base,Jever,Germany,\N,ETNJ,53.533501,7.88867,24,1,E,Europe/Berlin,airport
Rostock-Laage Airport,Laage,Germany,RLG,ETNL,53.9182014465,12.2783002853,138,1,E,Europe/Berlin,airport
Nörvenich Air Base,Noervenich,Germany,\N,ETNN,50.8312,6.65817,386,1,E,Europe/Berlin,airport
Schleswig Air Base,Schleswig,Germany,\N,ETNS,54.459301,9.51633,70,1,E,Europe/Berlin,airport
Wittmundhafen Airport,Wittmundhafen,Germany,\N,ETNT,53.5477981567383,7.66732978820801,26,1,E,Europe/Berlin,airport
Wunstorf Air Base,Wunstorf,Germany,\N,ETNW,52.457298,9.42717,187,1,E,Europe/Berlin,airport
Vilseck Army Air Field,Vilseck,Germany,\N,ETOI,49.6335983276367,11.7672004699707,1353,1,E,Europe/Berlin,airport
Coleman Army Air Field,Coleman,Germany,\N,ETOR,49.5635986328125,8.4633903503418,309,1,E,Europe/Berlin,airport
Wiesbaden Army Airfield,Wiesbaden,Germany,\N,ETOU,50.0498008728027,8.32540035247803,461,1,E,Europe/Berlin,airport
Landsberg Lech Air Base,Landsberg,Germany,\N,ETSA,48.070599,10.906,2044,1,E,Europe/Berlin,airport
Büchel Air Base,Buechel,Germany,\N,ETSB,50.1738014221,7.06333017349,1568,1,E,Europe/Berlin,airport
Erding Airport,Erding,Germany,\N,ETSE,48.3222999572754,11.9486999511719,1515,1,E,Europe/Berlin,airport
Fürstenfeldbruck Airport,Fuerstenfeldbruck,Germany,FEL,ETSF,48.2055549621582,11.2669439315796,1703,1,E,Europe/Berlin,airport
Holzdorf Air Base,Holzdorf,Germany,\N,ETSH,51.767799,13.1677,265,1,E,Europe/Berlin,airport
Ingolstadt Manching Airport,Ingolstadt,Germany,IGS,ETSI,48.7156982421875,11.5340003967285,1202,1,E,Europe/Berlin,airport
Lechfeld Airport,Lechfeld,Germany,\N,ETSL,48.1855010986328,10.8612003326416,1822,1,E,Europe/Berlin,airport
Neuburg AFB,Neuburg,Germany,\N,ETSN,48.710999,11.2115,1249,1,E,Europe/Berlin,airport
Gütersloh Air Base,Guetersloh,Germany,GUT,ETUO,51.922798,8.30633,236,1,E,Europe/Berlin,airport
Alexander Bay Airport,Alexander Bay,South Africa,ALJ,FAAB,-28.5750007629,16.5333003998,98,2,U,Africa/Johannesburg,airport
Aggeneys Airport,Aggeneys,South Africa,AGZ,FAAG,-29.2817993164062,18.8138999938965,2648,2,U,Africa/Johannesburg,airport
Brakpan Airport,Brakpan,South Africa,\N,FABB,-26.2385997772217,28.3017997741699,5300,2,U,Africa/Johannesburg,airport
Bisho Airport,Bisho,South Africa,BIY,FABE,-32.8970985413,27.2791004181,1950,2,U,Africa/Johannesburg,airport
Bram Fischer International Airport,Bloemfontein,South Africa,BFN,FABL,-29.0926990509,26.302400589,4458,2,U,Africa/Johannesburg,airport
Bethlehem Airport,Bethlehem,South Africa,\N,FABM,-28.2483997345,28.3360996246,5561,2,U,Africa/Johannesburg,airport
Hendrik Potgieter Airport,Bothaville,South Africa,\N,FABO,-27.3668003082275,26.6291999816895,4236,2,U,Africa/Johannesburg,airport
Cape Town International Airport,Cape Town,South Africa,CPT,FACT,-33.9648017883,18.6016998291,151,2,U,Africa/Johannesburg,airport
Calvinia Airport,Calvinia,South Africa,\N,FACV,-31.5002994537353,19.7259006500244,3250,2,U,Africa/Johannesburg,airport
King Shaka International Airport,Durban,South Africa,DUR,FALE,-29.6144444444,31.1197222222,295,2,U,Africa/Johannesburg,airport
Ben Schoeman Airport,East London,South Africa,ELS,FAEL,-33.0355987549,27.8258991241,435,2,U,Africa/Johannesburg,airport
Ermelo Airport,Ermelo,South Africa,\N,FAEO,-26.4955997467041,29.9797992706299,5700,2,U,Africa/Johannesburg,airport
Ficksburg Sentraoes Airport,Ficksburg,South Africa,\N,FAFB,-28.8230991363525,27.908899307251,5315,2,U,Africa/Johannesburg,airport
Grand Central Airport,Johannesburg,South Africa,GCJ,FAGC,-25.9862995148,28.1401004791,5325,2,U,Africa/Johannesburg,airport
George Airport,George,South Africa,GRJ,FAGG,-34.0055999756,22.378900528,648,2,U,Africa/Johannesburg,airport
Graaff Reinet Airport,Graaff Reinet,South Africa,\N,FAGR,-32.1935997009277,24.5414009094238,2604,2,U,Africa/Johannesburg,airport
Grahamstown Airport,Grahamstown,South Africa,\N,FAGT,-33.2846984863281,26.4981002807617,2135,2,U,Africa/Johannesburg,airport
Greytown Airport,Greytown,South Africa,\N,FAGY,-29.1219997406,30.5867004395,3531,2,U,Africa/Johannesburg,airport
Harmony Airport,Harmony,South Africa,\N,FAHA,-28.0786991119385,26.8612003326416,4399,2,U,Africa/Johannesburg,airport
Harrismith Airport,Harrismith,South Africa,\N,FAHR,-28.2350997924805,29.1061992645264,5585,2,U,Africa/Johannesburg,airport
Hoedspruit Air Force Base Airport,Hoedspruit,South Africa,HDS,FAHS,-24.3686008453,31.0487003326,1743,2,U,Africa/Johannesburg,airport
Gariep Dam Airport,Hendrik Verwoerddam,South Africa,\N,FAHV,-30.5622005462646,25.528299331665,4176,2,U,Africa/Johannesburg,airport
OR Tambo International Airport,Johannesburg,South Africa,JNB,FAJS,-26.1392,28.246,5558,2,U,Africa/Johannesburg,airport
P C Pelser Airport,Klerksdorp,South Africa,\N,FAKD,-26.8710994720459,26.7180004119873,4444,2,U,Africa/Johannesburg,airport
Kimberley Airport,Kimberley,South Africa,KIM,FAKM,-28.8027992249,24.7651996613,3950,2,U,Africa/Johannesburg,airport
Krugersdorp Airport,Krugersdorp,South Africa,\N,FAKR,-26.0808259199,27.7259149551,5499,2,U,Africa/Johannesburg,airport
Kroonstad Airport,Kroonstad,South Africa,\N,FAKS,-27.6606006622314,27.3157997131348,4700,2,U,Africa/Johannesburg,airport
Johan Pienaar Airport,Kuruman,South Africa,KMH,FAKU,-27.4566993713379,23.4113998413086,4382,2,U,Africa/Johannesburg,airport
Kleinsee Airport,Kleinsee,South Africa,KLZ,FAKZ,-29.6884002686,17.0939998627,270,2,U,Africa/Johannesburg,airport
Lanseria Airport,Johannesburg,South Africa,HLA,FALA,-25.9384994507,27.9260997772,4517,2,U,Africa/Johannesburg,airport
Lichtenburg Airport,Lichtenburg,South Africa,\N,FALI,-26.1756992340088,26.1846008300781,4875,2,U,Africa/Johannesburg,airport
Makhado Air Force Base Airport,Lambertsbaai,South Africa,\N,FALM,-23.1599006652832,29.6965007781982,3069,2,U,Africa/Johannesburg,airport
Langebaanweg Airport,Langebaanweg,South Africa,\N,FALW,-32.9688987732,18.1602993011,108,2,U,Africa/Johannesburg,airport
Ladysmith Airport,Ladysmith,South Africa,LAY,FALY,-28.5816993713,29.7497005463,3548,2,U,Africa/Johannesburg,airport
Middelburg Airport,Middelburg,South Africa,\N,FAMB,-25.6847991943359,29.4402008056641,4886,2,U,Africa/Johannesburg,airport
Margate Airport,Margate,South Africa,MGH,FAMG,-30.8574008942,30.343000412,495,2,U,Africa/Johannesburg,airport
Marble Hall Airport,Marble Hall,South Africa,\N,FAMI,-24.9890995025635,29.2831001281738,2980,2,U,Africa/Johannesburg,airport
Majuba Power Station Airport,Majuba Power Station,South Africa,\N,FAMJ,-27.0792999268,29.7784996033,5600,2,U,Africa/Johannesburg,airport
Riverside Airport,Malalane,South Africa,\N,FAMN,-25.4300003052,31.5767002106,1024,2,U,Africa/Johannesburg,airport
Morningside Farm Airport,Musina,South Africa,MEZ,FAMS,-25.7045001984,26.9090003967,4251,2,U,Africa/Johannesburg,airport
Mkuze Airport,Mkuze,South Africa,\N,FAMU,-27.6261005401611,32.0443000793457,400,2,U,Africa/Johannesburg,airport
Newcastle Airport,Newcastle,South Africa,NCS,FANC,-27.7705993652,29.9769001007,4074,2,U,Africa/Johannesburg,airport
Nylstroom Airfield,Nylstroom,South Africa,\N,FANY,-24.6861000061035,28.4349002838135,3900,2,U,Africa/Johannesburg,airport
Overberg Airport,Overberg,South Africa,\N,FAOB,-34.554901123,20.2506999969,52,2,U,Africa/Johannesburg,airport
Oudtshoorn Airport,Oudtshoorn,South Africa,DUH,FAOH,-33.6069984436,22.188999176,1063,2,U,Africa/Johannesburg,airport
Port Elizabeth Airport,Port Elizabeth,South Africa,PLZ,FAPE,-33.9849014282,25.6173000336,226,2,U,Africa/Johannesburg,airport
Plettenberg Bay Airport,Plettenberg Bay,South Africa,\N,FAPG,-34.0881601675,23.3287234306,465,2,U,Africa/Johannesburg,airport
Hendrik Van Eck Airport,Phalaborwa,South Africa,PHW,FAPH,-23.9372005463,31.1553993225,1432,2,U,Africa/Johannesburg,airport
Pietersburg Municipal Airport,Polokwane,South Africa,\N,FAPI,-23.9260997772,29.4843997955,4354,2,U,Africa/Johannesburg,airport
Port St Johns Airport,Port Saint Johns,South Africa,\N,FAPJ,-31.605899810791,29.5198001861572,1227,2,U,Africa/Johannesburg,airport
Pietermaritzburg Airport,Pietermaritzburg,South Africa,PZB,FAPM,-29.6490001678,30.3987007141,2423,2,U,Africa/Johannesburg,airport
Pilanesberg International Airport,Pilanesberg,South Africa,NTY,FAPN,-25.3337993622,27.1734008789,3412,2,U,Africa/Johannesburg,airport
Polokwane International Airport,Potgietersrus,South Africa,PTG,FAPP,-23.845269,29.458615,4076,2,U,Africa/Johannesburg,airport
Potchefstroom Airport,Potchefstroom,South Africa,\N,FAPS,-26.670999527,27.0818996429,4520,2,U,Africa/Johannesburg,airport
Parys Airport,Parys,South Africa,\N,FAPY,-26.8892993927002,27.5034008026123,4740,2,U,Africa/Johannesburg,airport
Queenstown Airport,Queenstown,South Africa,UTW,FAQT,-31.9202003479004,26.8822002410889,3637,2,U,Africa/Johannesburg,airport
Richards Bay Airport,Richard's Bay,South Africa,RCB,FARB,-28.7409992218,32.0920982361,109,2,U,Africa/Johannesburg,airport
Rustenburg Airport,Rustenburg,South Africa,\N,FARG,-25.6443004608,27.2710990906,3700,2,U,Africa/Johannesburg,airport
Robertson Airport,Robertson,South Africa,ROD,FARS,-33.812198638916,19.9027996063232,640,2,U,Africa/Johannesburg,airport
Springbok Airport,Springbok,South Africa,SBU,FASB,-29.6893005371094,17.9395999908447,2690,2,U,Africa/Johannesburg,airport
Secunda Airport,Secunda,South Africa,\N,FASC,-26.52409935,29.1700992584,5250,2,U,Africa/Johannesburg,airport
Saldanha /Vredenburg Airport,Saldanha,South Africa,\N,FASD,-32.964099884,17.9692993164,50,2,U,Africa/Johannesburg,airport
Springs Airfield,Springs,South Africa,\N,FASI,-26.2494004736,28.3982715607,5340,2,U,Africa/Johannesburg,airport
Swartkop Air Force Base,Swartkop,South Africa,\N,FASK,-25.8097000122,28.1646003723,4780,2,U,Africa/Johannesburg,airport
Sishen Airport,Sishen,South Africa,SIS,FASS,-27.6485996246,22.9993000031,3848,2,U,Africa/Johannesburg,airport
Hendrik Swellengrebel Airport,Swellendam,South Africa,\N,FASX,-34.0481986999512,20.4745998382568,407,2,U,Africa/Johannesburg,airport
Skukuza Airport,Skukuza,South Africa,SZK,FASZ,-24.960899353,31.5886993408,1020,2,U,Africa/Johannesburg,airport
Tommys Field Airport,Tommy's Field,South Africa,\N,FATF,-28.2600002288818,22.993200302124,4360,2,U,Africa/Johannesburg,airport
New Tempe Airport,Bloemfontein,South Africa,\N,FATP,-29.0328998565674,26.157600402832,4547,2,U,Africa/Johannesburg,airport
Tutuka Power Station Airport,Tutuka,South Africa,\N,FATT,-26.776599884,29.3388004303,5313,2,U,Africa/Johannesburg,airport
Tzaneen Airport,Tzaneen,South Africa,LTA,FATZ,-23.8243999481,30.3292999268,1914,2,U,Africa/Johannesburg,airport
Prince Mangosuthu Buthelezi Airport,Ulundi,South Africa,ULD,FAUL,-28.3206005096,31.4165000916,1720,2,U,Africa/Johannesburg,airport
Pierre Van Ryneveld Airport,Upington,South Africa,UTN,FAUP,-28.39909935,21.2602005005,2782,2,U,Africa/Johannesburg,airport
K. D. Matanzima Airport,Umtata,South Africa,UTT,FAUT,-31.5463631849,28.6733551025,2400,2,U,Africa/Johannesburg,airport
Vryburg Airport,Vryburg,South Africa,VRU,FAVB,-26.9824008942,24.7287998199,3920,2,U,Africa/Johannesburg,airport
Virginia Airport,Durban,South Africa,VIR,FAVG,-29.7705993652344,31.0583992004395,20,2,U,Africa/Johannesburg,airport
Vredendal Airport,Vredendal,South Africa,\N,FAVR,-31.6410007476807,18.5447998046875,330,2,U,Africa/Johannesburg,airport
Vereeniging Airport,Vereeniging,South Africa,\N,FAVV,-26.566400528,27.9608001709,4846,2,U,Africa/Johannesburg,airport
Wonderboom Airport,Pretoria,South Africa,PRY,FAWB,-25.6539,28.224199,4095,2,U,Africa/Johannesburg,airport
Witbank Airport,Witbank,South Africa,\N,FAWI,-25.8323001862,29.1919994354,5078,2,U,Africa/Johannesburg,airport
Waterkloof Air Force Base,Waterkloof,South Africa,\N,FAWK,-25.8299999237,28.2224998474,4940,2,U,Africa/Johannesburg,airport
Welkom Airport,Welkom,South Africa,WEL,FAWM,-27.9968245111,26.6633338928,4421,2,U,Africa/Johannesburg,airport
Ysterplaat Air Force Base,Ysterplaat,South Africa,\N,FAYP,-33.9001998901367,18.4983005523682,52,2,U,Africa/Johannesburg,airport
Zeerust Airport,Zeerust,South Africa,\N,FAZR,-25.5990009307861,26.0422992706299,4258,2,U,Africa/Johannesburg,airport
Francistown Airport,Francistown,Botswana,FRW,FBFT,-21.1595993041992,27.4745006561279,3283,2,U,Africa/Gaborone,airport
Jwaneng Airport,Jwaneng,Botswana,JWA,FBJW,-24.6023006439209,24.6909999847412,3900,2,U,Africa/Gaborone,airport
Kasane Airport,Kasane,Botswana,BBK,FBKE,-17.8328990936279,25.1623992919922,3289,2,U,Africa/Gaborone,airport
Maun Airport,Maun,Botswana,MUB,FBMN,-19.9726009368896,23.4311008453369,3093,2,U,Africa/Gaborone,airport
Sir Seretse Khama International Airport,Gaberone,Botswana,GBE,FBSK,-24.5552005767822,25.9181995391846,3299,2,U,Africa/Gaborone,airport
Selebi Phikwe Airport,Selebi-phikwe,Botswana,PKW,FBSP,-22.0583,27.8288,2925,2,U,Africa/Gaborone,airport
Maya-Maya Airport,Brazzaville,Congo (Brazzaville),BZV,FCBB,-4.25169992446899,15.2530002593994,1048,1,N,Africa/Brazzaville,airport
Owando Airport,Owando,Congo (Kinshasa),FTX,FCOO,-0.531350016593933,15.9500999450684,1214,1,N,Africa/Brazzaville,airport
Ouesso Airport,Ouesso,Congo (Kinshasa),OUE,FCOU,1.61599004269,16.0379009247,1158,1,N,Africa/Brazzaville,airport
Pointe Noire Airport,Pointe-noire,Congo (Brazzaville),PNR,FCPP,-4.81603002548218,11.8865995407105,55,1,N,Africa/Brazzaville,airport
Matsapha Airport,Manzini,Swaziland,MTS,FDMS,-26.5289993286133,31.3075008392334,2075,2,U,Africa/Mbabane,airport
Bangui M'Poko International Airport,Bangui,Central African Republic,BGF,FEFF,4.39847993850708,18.5188007354736,1208,1,N,Africa/Bangui,airport
Berbérati Airport,Berberati,Central African Republic,BBT,FEFT,4.22158002853394,15.7863998413086,1929,1,N,Africa/Bangui,airport
Bata Airport,Bata,Equatorial Guinea,BSG,FGBT,1.90547001361847,9.80568027496338,13,1,N,Africa/Malabo,airport
Malabo Airport,Malabo,Equatorial Guinea,SSG,FGSL,3.75527000427246,8.70872020721436,76,1,N,Africa/Malabo,airport
RAF Ascension Island,Wide Awake,Saint Helena,ASI,FHAW,-7.96960020065308,-14.3936996459961,278,0,N,Atlantic/St_Helena,airport
Sir Seewoosagur Ramgoolam International Airport,Plaisance,Mauritius,MRU,FIMP,-20.4302005767822,57.6836013793945,186,4,N,Indian/Mauritius,airport
Sir Charles Gaetan Duval Airport,Rodriguez Island,Mauritius,RRG,FIMR,-19.7576999664307,63.3610000610352,95,4,N,Indian/Mauritius,airport
Diego Garcia Naval Support Facility,Diego Garcia Island,British Indian Ocean Territory,\N,FJDG,-7.31327,72.411102,9,6,U,Indian/Chagos,airport
Tiko Airport,Tiko,Cameroon,TKC,FKKC,4.08919000626,9.3605298996,151,1,N,Africa/Douala,airport
Douala International Airport,Douala,Cameroon,DLA,FKKD,4.0060801506,9.71947956085,33,1,N,Africa/Douala,airport
Salak Airport,Maroua,Cameroon,MVR,FKKL,10.4513998031616,14.257399559021,1390,1,N,Africa/Douala,airport
Foumban Nkounja Airport,Foumban,Cameroon,FOM,FKKM,5.63691997528076,10.7508001327515,3963,1,N,Africa/Douala,airport
N'Gaoundéré Airport,N'gaoundere,Cameroon,NGE,FKKN,7.35700988769531,13.5592002868652,3655,1,N,Africa/Douala,airport
Garoua International Airport,Garoua,Cameroon,GOU,FKKR,9.33588981628418,13.3701000213623,794,1,N,Africa/Douala,airport
Bafoussam Airport,Bafoussam,Cameroon,BFX,FKKU,5.53692007065,10.3545999527,4347,1,N,Africa/Douala,airport
Bamenda Airport,Bamenda,Cameroon,BPC,FKKV,6.03923988342285,10.1225996017456,4065,1,N,Africa/Douala,airport
Yaoundé Airport,Yaounde,Cameroon,YAO,FKKY,3.83604001998901,11.5235004425049,2464,1,N,Africa/Douala,airport
Kasompe Airport,Kasompe,Zambia,\N,FLKE,-12.572799682617,27.893899917603,4636,2,U,Africa/Lusaka,airport
Livingstone Airport,Livingstone,Zambia,LVI,FLLI,-17.8218002319336,25.8227005004883,3302,2,U,Africa/Lusaka,airport
Kenneth Kaunda International Airport Lusaka,Lusaka,Zambia,LUN,FLLS,-15.3308000565,28.4526004791,3779,2,U,Africa/Lusaka,airport
Mfuwe Airport,Mfuwe,Zambia,MFU,FLMF,-13.2588996887207,31.9365997314453,1853,2,U,Africa/Lusaka,airport
Mongu Airport,Mongu,Zambia,\N,FLMG,-15.2545003890991,23.1623001098633,3488,2,U,Africa/Lusaka,airport
Simon Mwansa Kapwepwe International Airport,Ndola,Zambia,NLA,FLND,-12.998100280762,28.66489982605,4167,2,U,Africa/Lusaka,airport
Southdowns Airport,Southdowns,Zambia,KIW,FLSO,-12.9005002975464,28.1499004364014,4145,2,U,Africa/Lusaka,airport
Prince Said Ibrahim International Airport,Moroni,Comoros,HAH,FMCH,-11.5337,43.2719,93,3,U,Indian/Comoro,airport
Mohéli Bandar Es Eslam Airport,Moheli,Comoros,NWA,FMCI,-12.2981004714966,43.7663993835449,46,3,U,Indian/Comoro,airport
Ouani Airport,Anjouan,Comoros,AJN,FMCV,-12.1316995620728,44.4303016662598,62,3,U,Indian/Comoro,airport
